ID_SITE,ID_ENTITY,entity_name,latitude,longitude,elevation,depositional_context,measurement_method,TYPE,source,core_location,last_updated,ID_UNIT,id,ENTITY_ID,"Alpha-2 code","Alpha-3 code"
1,1,"Cygnet core",44.66,-110.61,2530,"lake sediment",Sieved,concentration,"Global Charcoal Database Version 4",-777777,2020-03-06,11,0,1,US,USA
2,4,"Slough Creek Pond core",44.91,-110.34,1884,"lake sediment",Sieved,concentration,"Global Charcoal Database Version 4",-777777,2020-03-06,11,1,4,US,USA
3,5,"Burnt Knob core",45.7,-114.98,2250,"lake sediment",Sieved,influx,IMPD,"central core",2021-05-07,10,2,5,US,USA
4,6,"Baker core",45.891785,-114.263047,2300,"lake sediment",Sieved,influx,"Global Charcoal Database Version 4","central core",2021-05-07,10,3,6,US,USA
5,7,"Hoodoo core",46.320193,-114.651545,1770,"lake sediment",Sieved,influx,"Global Charcoal Database Version 4","central core",2021-05-07,10,4,7,US,USA
6,9,"Pintlar core",45.84,-113.44,1921,"lake sediment",Sieved,concentration,"Global Charcoal Database Version 4",-777777,2020-03-06,11,5,9,US,USA
8,13,"Bolan core",41.0225,-122.4583,1637,"lake sediment",Sieved,concentration,"Global Charcoal Database Version 4","central core",2021-05-07,11,6,13,US,USA
9,15,"Bluff core",41.346415,-122.55995,1921,"lake sediment",Sieved,concentration,IMPD,"central core",2021-05-07,11,7,15,US,USA
10,16,"Cedar core",41.207395,-122.496677,1740,"lake sediment",Sieved,concentration,"Global Charcoal Database Version 4","central core",2021-05-07,11,8,16,US,USA
11,19,"Crater Lake CA core",41.3836,-122.5797,2288,"lake sediment",Sieved,concentration,"Global Charcoal Database Version 4","central core",2021-05-07,11,9,19,US,USA
12,21,"Mumbo core",41.191147,-122.510445,1860,"lake sediment",Sieved,concentration,"Global Charcoal Database Version 4","central core",2021-05-07,11,10,21,US,USA
13,23,"Trail core",44.28,-110.17,2362,"lake sediment",Sieved,concentration,"Global Charcoal Database Version 4",-777777,2020-03-06,11,11,23,US,USA
14,25,"Lost Lake core",45.822988,-123.579517,449,"lake sediment",Sieved,concentration,"Global Charcoal Database Version 4","central core",2021-05-07,11,12,25,US,USA
15,26,"Taylor OR long core",46.100556,123.906667,4,"lake sediment",Sieved,concentration,IMPD,-999999,2021-05-07,11,13,26,CN,CHN
17,29,"Beach Lake core",65.216667,-127.05,81,"lake sediment",-777777,concentration,IMPD,-999999,2021-05-07,69,14,29,CA,CAN
19,37,"Como core",37.55,-105.5,3523,"lake sediment",-777777,concentration,Neotoma,-777777,2021-12-01,137,15,37,US,USA
20,38,"Crane core",36.71,-112.21,2590,"lake sediment",-777777,concentration,Neotoma,-777777,2021-12-01,137,16,38,US,USA
21,39,"Excelsior Basin core_14_24",52.783333,-117.116667,2631,"lake sediment",-777777,concentration,"Global Charcoal Database Version 4",-999999,2021-05-07,86,17,39,CA,CAN
21,40,"Excelsior Basin core_gtr24",52.783333,-117.116667,2631,"lake sediment",-777777,concentration,"Global Charcoal Database Version 4",-999999,2021-05-07,61,18,40,CA,CAN
22,41,"Forest Pond 1 core",43.47,-109.93,2797,"lake sediment","Pollen slide","pollen concentration","Global Charcoal Database Version 4","central core",2021-05-07,78,19,41,US,USA
23,42,"Forest Pond 2 core",43.43,-109.95,2766,"lake sediment","Pollen slide","pollen concentration","Global Charcoal Database Version 4","central core",2021-05-07,78,20,42,US,USA
24,43,"Frying Pan core",38.61,-111.66,2720,"lake sediment",-777777,concentration,"Global Charcoal Database Version 4",-777777,2020-03-06,137,21,43,US,USA
25,44,"Head core",37.69,-105.73,2294,"lake sediment",-777777,concentration,"Global Charcoal Database Version 4",-777777,2020-03-06,137,22,44,US,USA
26,45,"Howes Prairie Marsh core",41.65,-87.07,185,"lake sediment",-777777,concentration,"Global Charcoal Database Version 4",-777777,2020-03-06,137,23,45,US,USA
27,46,"Maligne Lake core_gtr24",52.708479,-117.608897,1675,"lake sediment",-777777,concentration,"Global Charcoal Database Version 4",-999999,2021-05-07,61,24,46,CA,CAN
27,47,"Maligne Lake core_14_24",52.708479,-117.608897,1675,"lake sediment",-777777,concentration,"Global Charcoal Database Version 4",-999999,2021-05-07,86,25,47,CA,CAN
28,48,"Montezuma Well core",34,-112,1125,"lake sediment",-777777,concentration,Neotoma,-777777,2021-12-01,137,26,48,US,USA
29,49,"Ninisith Lake core 4",59.58,-113,225,"lake sediment",Sieved,influx,"Global Charcoal Database Version 4",-777777,2020-03-06,28,27,49,CA,CAN
29,50,"Ninisith Lake core 1",59.58,-113,225,"lake sediment",Sieved,influx,"Global Charcoal Database Version 4",-777777,2020-03-06,28,28,50,CA,CAN
29,51,"Ninisith Lake core 3",59.58,-113,225,"lake sediment","Pollen slide",influx,"Global Charcoal Database Version 4",-777777,2020-03-06,145,29,51,CA,CAN
29,52,"Ninisith Lake core 2",59.58,-113,225,"lake sediment","Pollen slide",influx,"Global Charcoal Database Version 4",-777777,2020-03-06,28,30,52,CA,CAN
29,53,"Ninisith Lake core 5",59.58,-113,225,"lake sediment",Sieved,influx,"Global Charcoal Database Version 4",-777777,2020-03-06,145,31,53,CA,CAN
30,54,"Park Pond 1 core",43.46,-109.95,2705,"lake sediment",-777777,"pollen concentration","Global Charcoal Database Version 4",-777777,2020-03-06,78,32,54,US,USA
31,55,"Park Pond 2 core",43.45,-109.94,2714,"lake sediment",-777777,"pollen concentration","Global Charcoal Database Version 4",-777777,2020-03-06,78,33,55,US,USA
32,56,"Park Pond 3 core",43.45,-109.92,2739,"lake sediment",-777777,"pollen concentration","Global Charcoal Database Version 4",-777777,2020-03-06,78,34,56,US,USA
33,57,"Posy Lake core",37.95,-111.7,2653,"lake sediment",-777777,concentration,Neotoma,-777777,2021-12-01,137,35,57,US,USA
34,58,"San Joaquin Marsh core",33.65,-117.85,2,"lake sediment",-777777,concentration,"Global Charcoal Database Version 4",-777777,2020-03-06,137,36,58,US,USA
36,60,"Tonquin Creek TC1 core_14_24",52.73,-118.36,1935,"lake sediment",-777777,concentration,"Global Charcoal Database Version 4",-999999,2021-05-07,86,37,60,CA,CAN
36,61,"Tonquin Creek TC1 core_gtr24",52.73,-118.36,1935,"lake sediment",-777777,concentration,"Global Charcoal Database Version 4",-999999,2021-05-07,61,38,61,CA,CAN
37,62,"Wilcox Pass core 12-20",52.24,-117.21,2355,"lake sediment",-777777,concentration,"Global Charcoal Database Version 4",-777777,2020-03-06,83,39,62,CA,CAN
37,63,"Wilcox Pass core gtr30",52.24,-117.21,2355,"lake sediment",-777777,concentration,"Global Charcoal Database Version 4",-777777,2020-03-06,64,40,63,CA,CAN
38,64,"Dog Lake core",50.76,-116.1,1183,"lake sediment",Sieved,concentration,"Global Charcoal Database Version 4","central core",2021-05-07,17,41,64,CA,CAN
41,67,"Martins core",47.71,-123.54,1415,"lake sediment",Sieved,influx,"Global Charcoal Database Version 4",-777777,2020-03-06,10,42,67,US,USA
42,68,"Moose core",47.88,-123.35,1508,"lake sediment",Sieved,concentration,"Global Charcoal Database Version 4",-777777,2020-03-06,11,43,68,US,USA
54,82,NG2,44.56,33.62,2,"fluvial/alluvial sediment","Pollen slide","pollen concentration","Global Charcoal Database Version 4",-777777,2020-03-06,23,44,82,UA,UKR
55,83,"Yaila-Crimea core",44.48,34.05,1205,"buried organic sediment","Pollen slide","pollen concentration","Global Charcoal Database Version 4",-777777,2020-03-06,23,45,83,UA,UKR
56,84,"Wadi Shallalah core",32.59,35.94,385,"fluvial/alluvial sediment","Pollen slide",concentration,"Global Charcoal Database Version 4",-777777,2020-03-06,137,46,84,JO,JOR
56,85,"Wadi Shallalah_CP ratio",32.59,35.94,385,"fluvial/alluvial sediment","Pollen slide","pollen concentration","Global Charcoal Database Version 4",-777777,2020-03-06,23,47,85,JO,JOR
57,86,"Suho Breznishko core",41.81,23.35,1963,"lake sediment","Pollen slide",other,"Global Charcoal Database Version 4",-777777,2020-03-06,161,48,86,BG,BGR
58,87,"Okadensko core",41.78,23.35,2475,"lake sediment","Pollen slide",other,"Global Charcoal Database Version 4",-777777,2020-03-06,161,49,87,BG,BGR
59,88,"Lake Van core",38.55,42.53,1648,"lake sediment","Pollen slide",concentration,"Global Charcoal Database Version 4",-777777,2021-12-23,114,50,88,TR,TUR
60,89,"Laguna Venus core",-45.53,-72.01,600,"lake sediment",Sieved,concentration,"Global Charcoal Database Version 4",-777777,2020-03-06,13,51,89,CL,CHL
66,96,"Morro de Itapeva core",-22.78,-45.57,1850,"bog sediment","Pollen slide","pollen concentration","Global Charcoal Database Version 4",-777777,2020-03-06,97,52,96,BR,BRA
67,97,"Serra Campos Gerais core_less50",-24.66,-50.21,1200,"lake sediment","Pollen slide",concentration,"Global Charcoal Database Version 4","central core",2021-05-07,43,53,97,BR,BRA
67,98,"Serra Campos Gerais core over 50",-24.66,-50.21,1200,"lake sediment","Pollen slide",concentration,"Global Charcoal Database Version 4","central core",2021-05-07,99,54,98,BR,BRA
76,107,"Mosquito Lake core",-42.493858,-71.404047,556,"lake sediment",Sieved,concentration,"Global Charcoal Database Version 4","central core",2021-05-07,17,55,107,AR,ARG
78,109,"Dongganchi site core",40.2,116,49,"fluvial/alluvial sediment","Pollen slide",concentration,"Global Charcoal Database Version 4",-777777,2020-03-06,134,56,109,CN,CHN
79,110,"Kunming CK3_count",39.98,116.26,48.6,"lake sediment","Pollen slide",concentration,"Global Charcoal Database Version 4",-777777,2020-03-06,22,57,110,CN,CHN
79,111,"Kunming CK3_conc",39.98,116.26,48.6,"lake sediment","Pollen slide",concentration,"Global Charcoal Database Version 4",-777777,2020-03-06,134,58,111,CN,CHN
80,112,"Nanwangcun profile",37,118,10,"fluvial/alluvial sediment",Sieved,concentration,"Global Charcoal Database Version 4",-777777,2020-03-06,22,59,112,CN,CHN
81,113,"Qindeli peat section",47.92,133.22,74,"bog sediment","Pollen slide",concentration,"Global Charcoal Database Version 4",-777777,2020-03-06,152,60,113,RU,RUS
82,114,"Yangjiawan paleosoil section",39.46,110.17,1219,soil,"Pollen slide",concentration,"Global Charcoal Database Version 4",-777777,2020-03-06,22,62,114,CN,CHN
83,115,"Xishan relic site_conc",34.91,113.53,130,"buried surface","Pollen slide",concentration,"Global Charcoal Database Version 4",-777777,2020-03-06,134,63,115,CN,CHN
83,116,"Xishan relic site_frag",34.91,113.53,130,"buried surface","Pollen slide",concentration,"Global Charcoal Database Version 4",-777777,2020-03-06,22,64,116,CN,CHN
84,117,"Muchang peat section_conc",43.03,122.2,308.4,archaeological,"Pollen slide",concentration,"Global Charcoal Database Version 4",-777777,2020-03-06,134,65,117,CN,CHN
84,118,"Muchang peat section_frag",43.03,122.2,308.4,archaeological,"Pollen slide",concentration,"Global Charcoal Database Version 4",-777777,2020-03-06,137,66,118,CN,CHN
85,119,"Erhai Lake core",25.76,100.2,1974,"lake sediment","Pollen slide",concentration,"Global Charcoal Database Version 4",-777777,2020-03-06,22,67,119,CN,CHN
86,120,"Daxigou profile",43.14,86.91,3450,other,"Pollen slide",concentration,"Global Charcoal Database Version 4",-777777,2020-03-06,22,68,120,CN,CHN
87,121,"Lijiayuan section",36.11,104.85,1850,other,Sieved,concentration,"Global Charcoal Database Version 4",-777777,2020-03-06,109,69,121,CN,CHN
88,122,"Lingtai section",35,107.5,1400,soil,Sieved,concentration,"Global Charcoal Database Version 4",-777777,2020-03-06,109,70,122,CN,CHN
89,123,"Weinan section 1",34.06,109,650,soil,Sieved,concentration,"Global Charcoal Database Version 4",-777777,2020-03-06,109,71,123,CN,CHN
90,125,"Huguangyan Maar Lake core_ppm",21.15,110.28,87.6,"lake sediment",Sieved,concentration,"Global Charcoal Database Version 4",-777777,2020-03-06,163,72,125,CN,CHN
91,127,"Longgan Lake core",30.16,116.16,12.1,"lake sediment","Pollen slide",concentration,"Global Charcoal Database Version 4",-999999,2021-05-07,135,73,127,CN,CHN
93,129,"Chihuahuenos Bog core",36.04,-106.5,2925,"lake sediment",Sieved,concentration,"Global Charcoal Database Version 4","central core",2021-05-07,11,74,129,US,USA
94,130,"Sao Francisco de Assis core",-29.58,-55.21,100,"bog sediment","Pollen slide",concentration,"Global Charcoal Database Version 4",-777777,2020-03-06,98,75,130,BR,BRA
97,133,"Lac Francis core",48.5264,-79.4722,305,"lake sediment",Sieved,influx,"Global Charcoal Database Version 4","central core",2021-05-07,149,76,133,CA,CAN
98,134,"Pas-de-Fond core",48.8083,-78.8083,290,"lake sediment",Sieved,influx,"Global Charcoal Database Version 4","central core",2021-05-07,149,77,134,CA,CAN
99,135,"Lattok core",65.956944,18.345,480,"lake sediment",Sieved,influx,"Global Charcoal Database Version 4","central core",2021-05-19,149,78,135,SE,SWE
100,136,"Raigejegge core",66.156944,18.2133333,480,"lake sediment",Sieved,influx,"Global Charcoal Database Version 4","central core",2021-05-19,149,79,136,SE,SWE
101,137,"Patterson Lake core",41.3867,-120.2236,2743,"lake sediment",Sieved,concentration,"Global Charcoal Database Version 4","central core",2021-05-07,11,80,137,US,USA
102,138,"Lily Lake core",41.9758,-120.2097,2042,"lake sediment",Sieved,concentration,"Global Charcoal Database Version 4","central core",2021-05-07,11,81,138,US,USA
103,139,"Dead Horse Lake core",42.5606,-120.7781,2248,"lake sediment",Sieved,concentration,"Global Charcoal Database Version 4","central core",2021-05-07,11,82,139,US,USA
104,140,"Massaciuccoli composite",43.85,10.31,1,"lake sediment","Pollen slide",influx,"Global Charcoal Database Version 4",-777777,2020-03-06,21,83,140,IT,ITA
105,141,"Coast Trail Pond core",37.98,-122.8,230,"lake sediment",Sieved,concentration,"Global Charcoal Database Version 4",-777777,2020-03-06,11,84,141,US,USA
106,142,"DeHerrera Lake core",37.74,-107.7,3343,"lake sediment",Sieved,concentration,"Global Charcoal Database Version 4",-777777,2020-03-06,11,85,142,US,USA
107,143,"Hunter's Lake core",37.6,-106.84,3516,"lake sediment",Sieved,influx,"Global Charcoal Database Version 4",-777777,2020-03-06,10,86,143,US,USA
108,144,"Jicarita Bog core",36.07,-105.58,3207,"lake sediment",Sieved,influx,"Global Charcoal Database Version 4",-777777,2020-03-06,10,87,144,US,USA
109,145,"Little Molas Lake core",37.7422,-107.7078,3370,"lake sediment",Sieved,concentration,"Global Charcoal Database Version 4",-777777,2021-12-10,134,88,145,US,USA
110,146,"Paradox Lake core",60.62,-150.75,68,"lake sediment",Sieved,influx,"Global Charcoal Database Version 4",-777777,2020-03-06,10,89,146,US,USA
111,147,"Laguna Aculeo core",-33.8333,-70.91,350,"lake sediment","Pollen slide",influx,"Global Charcoal Database Version 4","central core",2021-05-07,2,90,147,CL,CHL
113,149,"El Salto core",-41.64,-73.09,67,"lake sediment",Sieved,concentration,"Global Charcoal Database Version 4",-777777,2020-03-06,11,91,149,CL,CHL
114,150,"Lago Condorito core",-41.75,-73.11,60,"lake sediment","Pollen slide",concentration,"Global Charcoal Database Version 4",-777777,2020-03-06,3,92,150,CL,CHL
115,151,"Laguna Melli core",-42.76,-73.55,70,-777777,Sieved,concentration,"Global Charcoal Database Version 4",-777777,2020-03-06,11,93,151,CL,CHL
117,153,"Lago Pollux core",-45.67,-71.86,640,"lake sediment",Sieved,concentration,"Global Charcoal Database Version 4","marginal core",2021-05-07,11,94,153,CL,CHL
118,154,PS0304A,-50.93,-72.76,200,"bog sediment","Pollen slide",influx,"Global Charcoal Database Version 4","central core",2021-05-07,2,95,154,AR,ARG
119,155,"Torres del Paine core",-51.08,-73.06,100,"lake sediment","Pollen slide",concentration,"Global Charcoal Database Version 4",-777777,2020-03-06,81,96,155,AR,ARG
120,156,"Lago Guanaco composite",-51.13,-73.1,60,"lake sediment",Sieved,concentration,"Global Charcoal Database Version 4",-777777,2020-03-06,11,97,156,CL,CHL
121,157,"PTA02_4 gtr1000",-51.96,-70.38,100,"lake sediment",Sieved,influx,"Global Charcoal Database Version 4","central core",2021-05-07,8,98,157,AR,ARG
121,158,"PTA02_4 gtr20",-51.96,-70.38,100,"lake sediment","Pollen slide","pollen concentration","Global Charcoal Database Version 4","central core",2021-12-23,24,99,158,AR,ARG
122,159,"Rio Rubens core",-52.13,-71.88,220,"bog sediment",Sieved,concentration,IMPD,-999999,2021-05-07,11,100,159,AR,ARG
123,160,"Punta Arenas core",-53.15,-70.95,75,"bog sediment","Pollen slide",concentration,"Global Charcoal Database Version 4",-777777,2020-03-06,82,101,160,CL,CHL
125,162,"Puerto Haberton core",-54.88,-67.16,20,"bog sediment","Pollen slide",concentration,"Global Charcoal Database Version 4",-777777,2020-03-06,95,102,162,AR,ARG
126,163,"Siesta Lake core",37.85,-119.66,2430,"lake sediment",Sieved,concentration,"Global Charcoal Database Version 4","central core",2021-05-07,11,103,163,US,USA
130,167,"Ferry Lake core",46.01,-92.13,25,"lake sediment",Sieved,concentration,"Global Charcoal Database Version 4",-777777,2020-03-06,11,104,167,US,USA
135,173,"Maxus-Core 5",-0.7,-76.45,3,"lake sediment","Pollen slide",concentration,"Global Charcoal Database Version 4",-777777,2020-03-06,152,105,173,EC,ECU
138,179,"Curt Pond core",36.9,-84.03,336,"lake sediment","Pollen slide",concentration,"Global Charcoal Database Version 4","central core",2021-05-07,152,106,179,US,USA
139,180,"Cliff Palace Pond core",37.52,-83.92,424,"lake sediment","Pollen slide",concentration,"Global Charcoal Database Version 4","central core",2021-05-07,152,107,180,US,USA
140,182,"Horse Cove Bog core",35.04,-83.15,887,"lake sediment","Pollen slide",concentration,"Global Charcoal Database Version 4","central core",2021-05-07,152,108,182,US,USA
141,184,"Mound G Pond core",35.14,-88.2,143,"lake sediment","Pollen slide",concentration,"Global Charcoal Database Version 4",-999999,2021-05-07,152,109,184,US,USA
142,187,"Cahaba Pond core",33.5,-86.53,204,"lake sediment","Pollen slide",concentration,"Global Charcoal Database Version 4","central core",2021-05-07,152,110,187,US,USA
143,188,"Tuskegee Pond core",35.58,-84.21,240,"lake sediment","Pollen slide",concentration,"Global Charcoal Database Version 4",-777777,2020-03-06,152,111,188,US,USA
144,191,"Black Pond core",35.62,-84.18,262,"lake sediment","Pollen slide",concentration,"Global Charcoal Database Version 4",-777777,2020-03-06,152,112,191,US,USA
145,192,"East Sooke Fen core",48.3519,-123.6817,155,"bog sediment",Sieved,concentration,"Global Charcoal Database Version 4","central core",2021-05-07,88,113,192,CA,CAN
146,193,"Pixie core",48.595187,-124.197301,70,"lake sediment",Sieved,concentration,"Global Charcoal Database Version 4","central core",2021-05-07,88,114,193,CA,CAN
147,194,"Whyac core",48.6722,-124.8444,15,"lake sediment",Sieved,concentration,"Global Charcoal Database Version 4","central core",2021-05-07,88,115,194,CA,CAN
148,195,"Porphyry core",48.900916,-123.835013,1100,"lake sediment",Sieved,concentration,"Global Charcoal Database Version 4","central core",2021-05-07,11,116,195,CA,CAN
149,196,"Walker core",48.529101,-124.003118,950,"lake sediment",Sieved,concentration,"Global Charcoal Database Version 4","central core",2021-05-07,11,117,196,CA,CAN
151,199,"Albion core",45.67,-71.32,320,"lake sediment","Pollen slide",influx,"Global Charcoal Database Version 4",-777777,2020-03-06,149,118,199,CA,CAN
152,200,"Castor core",46.6139,-72.9989,220,"lake sediment","Pollen slide",influx,"Global Charcoal Database Version 4","central core",2021-05-07,149,119,200,CA,CAN
153,201,"Desautels core",49.4578,-73.2567,480,"lake sediment","Pollen slide",influx,"Global Charcoal Database Version 4","central core",2021-05-07,149,120,201,CA,CAN
154,202,"Dolbeau core",48.9669,-65.9558,965,"lake sediment","Pollen slide",influx,"Global Charcoal Database Version 4","central core",2021-05-07,149,121,202,CA,CAN
155,203,"J'Arrive core",49.2472,-65.3764,56,"lake sediment","Pollen slide",influx,"Global Charcoal Database Version 4","central core",2021-05-07,149,122,203,CA,CAN
156,204,"Madeleine core",47.6722,-70.7194,800,"lake sediment","Pollen slide",influx,"Global Charcoal Database Version 4","central core",2021-05-07,149,123,204,CA,CAN
157,205,"Neume core",47.5878,-77.1108,363,"lake sediment","Pollen slide",influx,"Global Charcoal Database Version 4","central core",2021-05-07,149,124,205,CA,CAN
158,206,"Spearman core",46.5439,-78.5028,368,"lake sediment","Pollen slide",influx,"Global Charcoal Database Version 4","central core",2021-05-07,149,125,206,CA,CAN
159,207,"Yamaska core",45.4578,-72.8719,265,"lake sediment","Pollen slide",influx,"Global Charcoal Database Version 4","central core",2021-05-07,149,126,207,CA,CAN
160,208,"Yelle core",48.5039,-79.6378,356,"lake sediment","Pollen slide",influx,"Global Charcoal Database Version 4","central core",2021-05-07,149,127,208,CA,CAN
161,209,"Masoko core_conc",-9.33,33.75,770,"lake sediment",Sieved,concentration,"Global Charcoal Database Version 4",-777777,2020-03-06,11,128,209,TZ,TZA
161,210,"Masoko core_pergam",-9.33,33.75,770,"lake sediment",Sieved,concentration,"Global Charcoal Database Version 4",-777777,2020-03-06,57,129,210,TZ,TZA
162,211,"Jackfish core",63.02,-136.47,655,"lake sediment",Sieved,concentration,"Global Charcoal Database Version 4",-777777,2020-03-06,11,130,211,CA,CAN
164,213,"Oops core",65.44,-147.63,488,"lake sediment",Sieved,concentration,"Global Charcoal Database Version 4",-777777,2020-03-06,11,131,213,US,USA
166,215,"Ruppert core",67.07,-154.24,230,"lake sediment",Sieved,influx,IMPD,"central core",2021-05-07,10,132,215,US,USA
167,216,"Xindi core",67.111667,152.491667,240,"lake sediment",Sieved,influx,IMPD,"central core",2021-05-07,10,133,216,RU,RUS
168,217,"Code core",67.15,-151.86,250,"lake sediment",Sieved,influx,"Global Charcoal Database Version 4","central core",2021-05-07,10,135,217,US,USA
169,218,"Wild Tussock core",67.128,-151.382,290,"lake sediment",Sieved,influx,IMPD,"central core",2021-05-07,10,136,218,US,USA
170,219,"Last Chance core",67.07,-150.75,250,"lake sediment",Sieved,influx,"Global Charcoal Database Version 4",-777777,2020-03-06,10,137,219,US,USA
171,220,"7-M core",62.5,-113.72,213,"lake sediment",Sieved,influx,"Global Charcoal Database Version 4","central core",2021-05-07,149,138,220,CA,CAN
172,221,"Arrow core",60.75,-150.516667,90,"lake sediment",Sieved,influx,"Global Charcoal Database Version 4","central core",2021-05-07,149,139,221,US,USA
173,222,"Rock Lake core",60.416667,-150.25,285,"lake sediment",Sieved,influx,"Global Charcoal Database Version 4","central core",2021-05-07,149,140,222,US,USA
175,224,"Portage core",60.716667,-150.5333,75,"lake sediment",Sieved,influx,"Global Charcoal Database Version 4","central core",2021-05-07,149,141,224,US,USA
176,225,"Banda Sea Core SHI-9014",-5.76,126.96,-3163,"marine sediment","Pollen slide",influx,"Global Charcoal Database Version 4",-888888,2021-05-07,143,142,225,ID,IDN
1912,230,"Tom Burns_D-section",-37.38,145.81,1075,"bog sediment","Pollen slide","pollen concentration","Global Charcoal Database Version 4",-777777,2020-03-06,23,143,230,AU,AUS
183,232,"Lake Baraba Thirlmere Lakes core",-34.23,150.53,305,"lake sediment",Sieved,concentration,"Global Charcoal Database Version 4","marginal core",2021-05-07,152,144,232,AU,AUS
188,237,"Core Fr10_95-GC-17",-22.04,113.5,-1093,"marine sediment","Pollen slide",concentration,"Global Charcoal Database Version 4",-777777,2020-03-06,115,145,237,AU,AUS
191,240,LT97,10.5445983014016,12.1313732910156,690,"lake sediment","Pollen slide",concentration,"Global Charcoal Database Version 4",-777777,2020-03-06,152,146,240,NG,NGA
192,241,"Krimda core",35.28,6.63,200,"bog sediment","Pollen slide",other,"Global Charcoal Database Version 4",-777777,2020-03-06,104,147,241,DZ,DZA
194,243,"Lago di Origlio core",46.055556,8.944444,416,"lake sediment","Pollen slide",concentration,"Global Charcoal Database Version 4","central core",2021-05-19,152,148,243,CH,CHE
195,244,"Lago di Muzzano core",45.994444,8.927778,337,"lake sediment","Pollen slide",concentration,"Global Charcoal Database Version 4","central core",2021-05-19,152,149,244,CH,CHE
196,245,"Soppensee composite core (SO89-17)",47.091667,8.0833333,596,"lake sediment","Pollen slide",concentration,"Global Charcoal Database Version 4","central core",2021-05-19,152,150,245,CH,CHE
197,246,"Lobsigensee core",47.03,7.29,514,"lake sediment","Pollen slide",concentration,"Global Charcoal Database Version 4",-777777,2020-03-06,152,151,246,CH,CHE
198,247,"Karakol core",42.83,77.39,2353,"lake sediment","Pollen slide",concentration,"Global Charcoal Database Version 4",-777777,2020-03-06,6,152,247,KG,KGZ
199,248,"Sharkey core",44.59,-93.41,305,"lake sediment",Sieved,influx,"Global Charcoal Database Version 4",-777777,2020-03-06,149,153,248,US,USA
200,249,"Kimble core",44.22,-93.84,309,"lake sediment",Sieved,influx,"Global Charcoal Database Version 4",-777777,2020-03-06,149,154,249,US,USA
204,253,"Cooley Lake core",49.490867,-117.645321,1515,"lake sediment",Sieved,count,author,"central core",2021-11-01,185,155,253,CA,CAN
205,254,"Rockslide core",49.550849,-117.52088,1539,"lake sediment",Sieved,count,author,"central core",2021-11-01,185,156,254,CA,CAN
208,257,"Black Swamp core",-32.05,151.4667,1450,"bog sediment","Pollen slide",influx,"Global Charcoal Database Version 4","central core",2021-05-07,143,157,257,AU,AUS
209,258,"Boggy Swamp core",-29.96,151.49,1160,"bog sediment","Pollen slide",influx,"Global Charcoal Database Version 4","central core",2021-05-07,143,158,258,AU,AUS
210,259,"Butchers Swamp core",-29.97,151.45,1230,"bog sediment","Pollen slide",influx,"Global Charcoal Database Version 4","central core",2021-05-07,143,159,259,AU,AUS
212,261,"Craigrossie core",-29.82,30.99,112,"lake sediment","Pollen slide","pollen concentration","Global Charcoal Database Version 4",-777777,2020-03-06,23,160,261,ZA,ZAF
213,262,"Dublin Bog core",-41.72,146.23,710,"bog sediment",Sieved,concentration,"Global Charcoal Database Version 4",-777777,2020-03-06,152,161,262,AU,AUS
214,265,"ELA-320 Lake core_area",49.5,-93.5,360,"lake sediment",Sieved,concentration,"Global Charcoal Database Version 4","central core",2021-12-10,10,162,265,CA,CAN
215,266,"Haeapugua core",-5.83,142.78,1650,"bog sediment","Pollen slide",other,"Global Charcoal Database Version 4",-777777,2020-03-06,161,163,266,PG,PNG
216,267,"Iso Lehmalampi core",60.35,24.6,106,"lake sediment","Pollen slide",concentration,"Global Charcoal Database Version 4","central core",2021-05-07,75,164,267,FI,FIN
217,268,"Jierstivaara core",68.66,23.73,457,"bog sediment","Pollen slide",concentration,"Global Charcoal Database Version 4",-777777,2020-03-06,6,165,268,FI,FIN
219,270,"Noreikora Swamp core",-6.33,145.83,1750,"lake sediment","Pollen slide",other,"Global Charcoal Database Version 4",-777777,2020-03-06,161,166,270,PG,PNG
220,271,"Northwest Lake core",52.5,-92.5,331,"lake sediment",Sieved,concentration,"Global Charcoal Database Version 4","central core",2021-05-07,152,167,271,CA,CAN
221,273,"Putaanlampi core",66.38,29.41,230,"bog sediment","Pollen slide",concentration,"Global Charcoal Database Version 4","central core",2021-05-07,6,168,273,FI,FIN
222,274,RD3,-6.1833,105.9667,100,"bog sediment","Pollen slide",other,"Global Charcoal Database Version 4","central core",2021-05-07,161,169,274,ID,IDN
223,275,"Siles Lake core",38.4,-2.5,1320,"lake sediment","Pollen slide",concentration,author,"central core",2021-05-07,22,170,275,ES,ESP
224,276,"Tadpole Swamp core",-38.13,145.27,60,"bog sediment","Pollen slide",concentration,"Global Charcoal Database Version 4",-777777,2020-03-06,60,171,276,AU,AUS
225,277,"Whitehaven Swamp core",-20.3,148.9,45,"lake sediment","Pollen slide",influx,"Global Charcoal Database Version 4",-777777,2020-03-06,143,172,277,AU,AUS
226,278,"Buxton core",-37.44,145.69,235,"bog sediment","Pollen slide",concentration,"Global Charcoal Database Version 4",-777777,2020-03-06,152,173,278,AU,AUS
227,279,"Etu-Mustajarvi core",60.98,25,157,"lake sediment","Pollen slide",concentration,"Global Charcoal Database Version 4",-777777,2020-03-06,75,174,279,FI,FIN
228,280,"Lac Hertel core",45.68,-74.05,75,"lake sediment","Pollen slide",influx,"Global Charcoal Database Version 4",-777777,2020-03-06,149,175,280,CA,CAN
229,281,"Lake Habbema core",-4.11,138.7,3120,"lake sediment","Pollen slide",other,"Global Charcoal Database Version 4",-777777,2020-03-06,161,176,281,ID,IDN
230,282,"Middle Patriarch Swamp core",-39.99,148.18,19,"bog sediment","Pollen slide",influx,"Global Charcoal Database Version 4",-777777,2020-03-06,143,177,282,AU,AUS
231,283,"North Torbreck core",-37.48,146.94,564,"bog sediment","Pollen slide",concentration,"Global Charcoal Database Version 4",-777777,2020-03-06,152,178,283,AU,AUS
232,284,"Oaks Creek core",-37.58,146.16,610,"bog sediment","Pollen slide",concentration,"Global Charcoal Database Version 4",-777777,2020-03-06,108,179,284,AU,AUS
233,285,"Poets Hill core",-41.88,145.55,600,"bog sediment","Pollen slide","pollen concentration","Global Charcoal Database Version 4",-777777,2020-03-06,24,180,285,AU,AUS
234,286,"Powelltown core",-37.86,145.7,168,"bog sediment","Pollen slide",concentration,"Global Charcoal Database Version 4",-777777,2020-03-06,108,181,286,AU,AUS
235,287,"Rietvlei Dam core",-29.82,30.99,112,"lake sediment","Pollen slide","pollen concentration","Global Charcoal Database Version 4",-777777,2020-03-06,23,182,287,ZA,ZAF
237,289,"Snobs Creek core",-37.55,145.92,775,"bog sediment","Pollen slide","pollen concentration","Global Charcoal Database Version 4",-777777,2020-03-06,23,183,289,AU,AUS
238,290,"Tugupugua core",-5.66,142.61,2300,"bog sediment","Pollen slide",concentration,"Global Charcoal Database Version 4",-777777,2020-03-06,152,184,290,PG,PNG
239,291,"Ylimmainen Kuivajarvi core",66.35,29.6167,255,"lake sediment","Pollen slide",concentration,"Global Charcoal Database Version 4","marginal core",2021-05-07,75,185,291,FI,FIN
240,292,"Ijomba core",-4.03,137.21,3630,"bog sediment","Pollen slide",concentration,"Global Charcoal Database Version 4",-777777,2021-12-01,152,186,292,ID,IDN
241,293,"Lake Mountain core",-37.46,145.87,1450,"bog sediment","Pollen slide","pollen concentration","Global Charcoal Database Version 4",-777777,2020-03-06,23,187,293,AU,AUS
242,294,"Lake Teza core",-28.51,32.3,8,"marine sediment","Pollen slide","pollen concentration","Global Charcoal Database Version 4",-777777,2020-03-06,23,188,294,ZA,ZAF
243,295,"Lake Tritrivakely core",-19.78,46.91,1514,"lake sediment","GRAVIMETRIC chemical assay (Winkler method)",other,"Global Charcoal Database Version 4",-777777,2020-03-06,30,189,295,MG,MDG
244,297,"Nicole Lake core",62.898592,-114.806868,300,"lake sediment",Sieved,concentration,"Global Charcoal Database Version 4","central core",2021-05-07,152,190,297,CA,CAN
245,300,"Scotty Lake core_area",54.71,-101.68,305,"lake sediment",Sieved,concentration,"Global Charcoal Database Version 4","central core",2021-05-07,10,191,300,CA,CAN
246,302,"Sky Lake core_area",56.483601,-94.787937,145,"lake sediment",Sieved,concentration,"Global Charcoal Database Version 4","central core",2021-05-07,10,192,302,CA,CAN
247,304,"Tiger Snake Swamp core",-38.13,145.27,60,"bog sediment","Pollen slide",concentration,"Global Charcoal Database Version 4",-777777,2020-03-06,60,193,304,AU,AUS
248,305,"Zagas Nuur core",48.5061,90.6099,2376,"lake sediment",Sieved,influx,"Global Charcoal Database Version 4","central core",2021-05-19,149,194,305,MN,MNG
250,307,"Laukutu Swamp core",-9.47,160.08,20,"bog sediment","Pollen slide",concentration,"Global Charcoal Database Version 4",-777777,2020-03-06,152,195,307,SB,SLB
251,308,"ODP-668B core",-20.92,4.77,-3965,"marine sediment","Pollen slide",concentration,"Global Charcoal Database Version 4",-888888,2021-05-07,162,196,308,AO,AGO
253,310,"Piston Core RC24-07",-11.91,1.35,-3899,"marine sediment","Acidification of sample using gas chromatography to measure elemental carbon (Verardo et al., 1990)",other,"Global Charcoal Database Version 4",-777777,2020-03-06,33,197,310,SH,SHN
256,313,"Kabata Swamp core",0.48,30.26,1370,"bog sediment","GRAVIMETRIC chemical assay (Winkler method)",concentration,"Global Charcoal Database Version 4",-777777,2020-03-06,144,198,313,UG,UGA
258,315,"La Yeguada core",8.45,-80.85,650,"lake sediment","Pollen slide",other,"Global Charcoal Database Version 4",-777777,2020-03-06,161,199,315,PA,PAN
262,319,"Turtle core",49.32,-124.95,80,"lake sediment",Sieved,concentration,"Global Charcoal Database Version 4","central core",2021-05-07,11,200,319,CA,CAN
263,320,"Boomerang core",49.18,-124.15,360,"lake sediment",Sieved,concentration,"Global Charcoal Database Version 4","central core",2021-05-07,11,201,320,CA,CAN
264,321,"Enos core",49.28,-124.15,50,"lake sediment",Sieved,concentration,"Global Charcoal Database Version 4","central core",2021-05-07,11,202,321,CA,CAN
266,324,"Lac Diana core",60.98,-69.95,114,"lake sediment","Pollen slide",influx,"Global Charcoal Database Version 4",-777777,2020-03-06,149,203,324,CA,CAN
267,325,"Lac Marcotte core",47.07,-71.42,503,"lake sediment","Pollen slide",influx,"Global Charcoal Database Version 4",-777777,2020-03-06,149,204,325,CA,CAN
268,326,"Ljustjarnen core",59.75,14.43,183,"lake sediment",Sieved,influx,"Global Charcoal Database Version 4",-777777,2020-03-06,16,205,326,SE,SWE
269,327,"St Francois core",48.29,-72.14,358,"lake sediment","Pollen slide",influx,"Global Charcoal Database Version 4",-777777,2020-03-06,149,206,327,CA,CAN
271,329,"Mont Valin core",48.61,-70.83,356,"lake sediment","Pollen slide",influx,"Global Charcoal Database Version 4",-777777,2020-03-06,149,207,329,CA,CAN
273,331,"Pechora core",62,52,127,"bog sediment",-777777,concentration,"Global Charcoal Database Version 4",-777777,2020-03-06,11,208,331,RU,RUS
274,332,"Lena core",69.38,125.13,50,"bog sediment",-777777,concentration,"Global Charcoal Database Version 4",-777777,2020-03-06,123,210,332,RU,RUS
275,333,"Elim core",-28.51,28.5,1757,other,"Pollen slide","pollen concentration","Global Charcoal Database Version 4",-777777,2020-03-06,23,212,333,ZA,ZAF
276,334,"Lago di Basso core",46.4167,9.2833,2250,"lake sediment","Pollen slide",influx,"Global Charcoal Database Version 4","central core",2021-05-19,10,213,334,CH,CHE
277,335,"Trygasen core",61.77,13.3,549,"bog sediment",Sieved,influx,"Global Charcoal Database Version 4",-777777,2020-03-16,16,214,335,SE,SWE
278,336,"Lago Piccolo di Avigliana core",45.05,7.3833,356,"lake sediment","Pollen slide",influx,"Global Charcoal Database Version 4","central core",2021-05-19,21,215,336,IT,ITA
280,339,"Lac Rond core",46,-74,360,"lake sediment",Sieved,concentration,"Global Charcoal Database Version 4",-777777,2020-03-06,152,216,339,CA,CAN
281,342,"Pout Pond core",43.42,-71.5,232,"lake sediment",Sieved,concentration,"Global Charcoal Database Version 4",-777777,2020-03-06,152,217,342,US,USA
282,344,"Round Pond core",44,-74,548,"lake sediment",Sieved,concentration,"Global Charcoal Database Version 4",-777777,2020-03-06,152,218,344,US,USA
284,346,"Crawford core",43.468529,-79.948817,279,"lake sediment",Sieved,influx,"Global Charcoal Database Version 4","central core",2021-05-07,149,219,346,CA,CAN
285,347,"Beaver core",42.47,-100.67,900,"lake sediment",Sieved,concentration,"Global Charcoal Database Version 4",-777777,2020-03-06,152,220,347,US,USA
287,351,"Deming core",47.17,-95.1675,464,"lake sediment",Sieved,concentration,"Global Charcoal Database Version 4","central core",2021-12-23,152,221,351,US,USA
288,354,"Fish core",43.85,-95.04,423,"lake sediment",Sieved,concentration,"Global Charcoal Database Version 4",-777777,2020-03-06,152,222,354,US,USA
291,359,"Moon core",46.857601,-98.158626,456,"lake sediment",Sieved,concentration,"Global Charcoal Database Version 4","central core",2021-05-07,152,223,359,US,USA
292,361,"Reservoir core",45.13,-113.46,2161,"lake sediment",Sieved,concentration,"Global Charcoal Database Version 4",-777777,2020-03-06,152,224,361,US,USA
293,362,"McGinnis core",44.6,-78.03,256,"lake sediment",Sieved,influx,"Global Charcoal Database Version 4",-777777,2020-03-06,149,225,362,CA,CAN
294,363,"Petit Bouchard core",48.8539,-64.5978,145,"lake sediment","Pollen slide",concentration,"Global Charcoal Database Version 4","central core",2021-05-07,152,226,363,CA,CAN
295,364,"Lac aux Atocas core",45.5428,-73.3108,114,"lake sediment","Pollen slide",influx,"Global Charcoal Database Version 4","central core",2021-05-07,149,227,364,CA,CAN
296,365,"Lac Caribou core",48.1978,-64.94,116,"lake sediment","Pollen slide",influx,"Global Charcoal Database Version 4","central core",2021-05-07,149,228,365,CA,CAN
297,366,"Lac Clo core",48.4969,-79.3528,280,"lake sediment","Pollen slide",influx,"Global Charcoal Database Version 4","central core",2021-05-07,149,229,366,CA,CAN
298,367,"Lac Daumont core",54.8828,-69.4028,607,"lake sediment","Pollen slide",influx,"Global Charcoal Database Version 4","central core",2021-05-07,149,230,367,CA,CAN
299,368,"Lac Delorme core",54.4239,-69.9297,538,"lake sediment","Pollen slide",influx,"Global Charcoal Database Version 4","central core",2021-05-07,149,231,368,CA,CAN
300,369,"Lac a Euloge core",49.2444,-65.3722,83,"lake sediment","Pollen slide",influx,"Global Charcoal Database Version 4","central core",2021-05-07,149,232,369,CA,CAN
301,370,"Lac Gabriel core",46.2758,-73.4758,250,"lake sediment","Pollen slide",influx,"Global Charcoal Database Version 4",-999999,2021-05-07,149,233,370,CA,CAN
302,371,"Lac a Leonard core",49.2078,-65.8128,17,"lake sediment","Pollen slide",influx,"Global Charcoal Database Version 4","central core",2021-05-07,149,234,371,CA,CAN
303,372,"Lac a la Main core",47.7,-70.6222,730,"lake sediment","Pollen slide",influx,"Global Charcoal Database Version 4","central core",2021-05-07,149,235,372,CA,CAN
304,373,"Lac Martini core",47.475,-72.7647,242,"lake sediment","Pollen slide",influx,"Global Charcoal Database Version 4","central core",2021-05-07,149,236,373,CA,CAN
305,374,"Lac a la Montagne Ronde core",48.3208,-68.5653,150,"lake sediment","Pollen slide",influx,"Global Charcoal Database Version 4","central core",2021-05-07,149,237,374,CA,CAN
306,375,"Lac Ouellet core",47.5328,-68.9439,300,"lake sediment","Pollen slide",influx,"Global Charcoal Database Version 4","central core",2021-05-07,149,238,375,CA,CAN
307,376,"Lac Perdu core",49.1708,-66.3236,152,"lake sediment","Pollen slide",influx,"Global Charcoal Database Version 4","central core",2021-05-07,149,239,376,CA,CAN
308,377,Pessiere_B,49.5,-79.24,280,"lake sediment",Sieved,influx,"Global Charcoal Database Version 4",-777777,2020-03-06,149,240,377,CA,CAN
309,378,"Triangle core",48.71,-65.4139,465,"lake sediment","Pollen slide",influx,"Global Charcoal Database Version 4","central core",2021-05-07,149,241,378,CA,CAN
310,379,"Lac Flevy core",48.2169,-71.2189,381,"lake sediment","Pollen slide",influx,"Global Charcoal Database Version 4","central core",2021-05-07,149,242,379,CA,CAN
311,380,"Marais du Grand-Chaumet core",46.93,1.9,140,"bog sediment","Pollen slide",concentration,"Global Charcoal Database Version 4",-777777,2020-03-06,152,243,380,FR,FRA
312,381,"Artxilondo core",43.03,-1.13,900,"bog sediment","Pollen slide",concentration,"Global Charcoal Database Version 4","central core",2021-05-07,152,244,381,ES,ESP
313,382,"Neublans core",46.91,5.34,205,"bog sediment","Pollen slide",concentration,"Global Charcoal Database Version 4",-777777,2020-03-06,12,245,382,FR,FRA
314,383,"LLM Chavannes core",46.84,2.36,150,"bog sediment","Pollen slide",influx,"Global Charcoal Database Version 4","central core",2021-05-07,149,246,383,FR,FRA
315,384,"Pla de l'Orri core",42.5,1.88,2100,"bog sediment","Pollen slide",influx,"Global Charcoal Database Version 4",-777777,2020-03-06,149,247,384,ES,ESP
316,385,"Cuguron core",43.1,0.54,515,"bog sediment","Pollen slide",influx,"Global Charcoal Database Version 4",-777777,2020-03-06,149,248,385,FR,FRA
317,386,"Peyre core",44.96,2.71,1100,"bog sediment",Sieved,influx,"Global Charcoal Database Version 4",-777777,2020-03-06,10,249,386,FR,FRA
318,387,"Lej da San Murrezzan core",46.49,9.84,1768,"lake sediment","Pollen slide",concentration,"Global Charcoal Database Version 4",-777777,2020-03-06,6,250,387,CH,CHE
319,388,"Saracuri core",-1.67,-53.57,18,"lake sediment","Pollen slide",concentration,"Global Charcoal Database Version 4","central core",2021-05-07,152,251,388,BR,BRA
320,389,"Santa Maria core",-1.57,-53.6,17,"lake sediment","Charcoal particles identified by imaging software",concentration,"Global Charcoal Database Version 4",-777777,2020-03-06,152,252,389,BR,BRA
325,394,"Lago Tapajos core",-2.77,-55.08,15,"lake sediment","Pollen slide",concentration,"Global Charcoal Database Version 4",-777777,2020-03-06,53,253,394,BR,BRA
327,396,"Biviere di Gela core",37.0167,14.33,7,"lake sediment","Pollen slide",concentration,"Global Charcoal Database Version 4","central core",2021-05-07,6,254,396,IT,ITA
330,399,"Ajax Bog core",-46.4192,169.2922,680,"bog sediment",Sieved,concentration,"Global Charcoal Database Version 4",-999999,2021-05-07,152,255,399,NZ,NZL
331,400,"Clarks Junction core",-45.71,170.11,560,"lake sediment",Sieved,concentration,"Global Charcoal Database Version 4",-777777,2020-03-06,152,256,400,NZ,NZL
332,401,"Eweburn Bog core",-45.32,167.8,320,"bog sediment","Pollen slide","pollen concentration","Global Charcoal Database Version 4",-777777,2020-03-06,164,257,401,NZ,NZL
333,402,"Glendhu Bog core",-45.8333,169.75,600,"bog sediment",Sieved,"pollen concentration","Global Charcoal Database Version 4","central core",2021-05-07,164,258,402,NZ,NZL
334,403,"Kichikol core",39.98,73.55,2541,"lake sediment","Pollen slide",concentration,"Global Charcoal Database Version 4",-777777,2020-03-06,6,259,403,KG,KGZ
335,404,"Bakaly core",42.45,72.6,1879,"lake sediment","Pollen slide",concentration,"Global Charcoal Database Version 4",-777777,2020-03-06,6,260,404,KG,KGZ
723,405,"Lago della Costa AP1",45.270278,11.743056,7,"lake sediment","Pollen slide",concentration,"Global Charcoal Database Version 4","central core",2021-05-19,6,261,405,IT,ITA
337,406,"Lake Majo core",-1.46,127.48,140,"lake sediment","Pollen slide",other,"Global Charcoal Database Version 4",-777777,2020-03-06,161,262,406,ID,IDN
340,409,"Sonenuma Swamp core",35.23,136.19,86,"bog sediment","Pollen slide",concentration,"Global Charcoal Database Version 4",-777777,2020-03-06,152,263,409,JP,JPN
1638,410,"Lake Biwa Andiosols",35.38,135.97,220,soil,"Pollen slide",concentration,"Global Charcoal Database Version 4",-777777,2020-03-06,147,264,410,JP,JPN
342,411,"Gooches Swamp core",-33.45,150.26,960,"bog sediment",Sieved,concentration,"Global Charcoal Database Version 4","central core",2021-05-07,17,265,411,AU,AUS
344,413,"Dyanushka core",65.03,125.03,33,"bog sediment","Pollen slide",concentration,"Global Charcoal Database Version 4",-777777,2020-03-06,161,266,413,RU,RUS
348,417,"Pontes e Lacerda core",-15.26,-59.21,260,soil,"Hand picked charcoal from soil samples",other,"Global Charcoal Database Version 4",-777777,2020-03-06,30,268,417,BR,BRA
349,418,"Salitre core",-19,-46.76,970,soil,"Hand picked charcoal from soil samples",other,"Global Charcoal Database Version 4",-777777,2020-03-06,30,269,418,BR,BRA
350,419,"Sakhare core",41.58,45.31,800,"lake sediment","Pollen slide",concentration,"Global Charcoal Database Version 4",-777777,2020-03-06,152,270,419,GE,GEO
351,420,"Kumisi core",41.58,44.83,469,"lake sediment","Pollen slide",concentration,"Global Charcoal Database Version 4",-777777,2020-03-06,152,271,420,GE,GEO
352,421,"Tsavkisi core 1",41.68,44.71,1100,"bog sediment","Pollen slide",concentration,"Global Charcoal Database Version 4",-777777,2020-03-06,152,272,421,GE,GEO
353,422,"Imera 2002 core",41.65,44.21,1610,"bog sediment","Pollen slide",concentration,"Global Charcoal Database Version 4",-777777,2020-03-06,152,273,422,GE,GEO
354,423,"Aligol 2003 core",41.63,44.01,1550,"bog sediment","Pollen slide",concentration,"Global Charcoal Database Version 4",-777777,2020-03-06,152,274,423,GE,GEO
355,424,"Ispani core",41.86,41.8,2,"bog sediment","Pollen slide",concentration,"Global Charcoal Database Version 4",-777777,2020-03-06,152,275,424,GE,GEO
356,425,"Hidden core",40.51,-106.61,2710,"lake sediment",Sieved,concentration,"Global Charcoal Database Version 4",-777777,2020-03-06,11,276,425,US,USA
357,427,"South Fork Payette core",44.2,-115.5,1984,other,Other,other,"Global Charcoal Database Version 4",-777777,2020-03-06,161,277,427,US,USA
358,428,"NE Yellowstone National Park core",45,-110,2250,other,Other,other,"Global Charcoal Database Version 4",-777777,2020-03-06,161,278,428,US,USA
359,429,"East Lake core",37.17,-119.02,2863,"lake sediment",Sieved,influx,"Global Charcoal Database Version 4",-777777,2020-03-06,10,279,429,US,USA
360,430,"Sapphire Swamp core",-30.03,151.56,1260,"bog sediment","Pollen slide",influx,"Global Charcoal Database Version 4",-777777,2020-03-06,143,280,430,AU,AUS
361,431,"Burraga Swamp core",-32.02,151.43,1462,"bog sediment","Pollen slide","pollen concentration","Global Charcoal Database Version 4",-777777,2020-03-06,126,281,431,AU,AUS
362,432,"Killalea Lagoon core",-34.6,150.86,22,"lake sediment","Pollen slide","pollen concentration","Global Charcoal Database Version 4","central core",2021-05-07,65,282,432,AU,AUS
363,433,"Bondi Lake Centre Core",-36.8,149.93,22,"lake sediment","Pollen slide","pollen concentration","Global Charcoal Database Version 4","central core",2021-05-07,65,283,433,AU,AUS
365,436,"Soleve 2 core",-17.25,-179.49,2,"bog sediment","Pollen slide",concentration,"Global Charcoal Database Version 4","central core",2021-05-07,152,284,436,WF,WLF
366,437,"Yacata core",-17.15,-179.51,2,"bog sediment","Pollen slide",concentration,"Global Charcoal Database Version 4","central core",2021-05-07,123,285,437,WF,WLF
367,438,"Voli Voli core",-18.16,177.48,2,"bog sediment","Pollen slide",concentration,"Global Charcoal Database Version 4","central core",2021-05-07,152,286,438,FJ,FJI
370,441,"Kettlehole Bog core_less50",-43.05,171.78,600,"bog sediment","Pollen slide","pollen concentration","Global Charcoal Database Version 4",-777777,2020-03-06,44,287,441,NZ,NZL
370,442,"Kettlehole Bog core_gtr50",-43.05,171.78,600,"bog sediment","Pollen slide","pollen concentration","Global Charcoal Database Version 4",-777777,2020-03-06,71,288,442,NZ,NZL
371,443,"Kaipo core",-38.4,177.1,980,"bog sediment","Pollen slide","pollen concentration","Global Charcoal Database Version 4","central core",2022-01-05,164,289,443,NZ,NZL
372,444,"Waikaremoana core",-38.7745,177.1124,582,"lake sediment","Pollen slide",concentration,"Global Charcoal Database Version 4","marginal core",2021-05-07,152,290,444,NZ,NZL
374,446,"Lago del Greppo composite",44.11,11.66,1442,"lake sediment","Pollen slide",concentration,Neotoma,-777777,2021-12-01,6,291,446,IT,ITA
375,447,"Brenda Lake core",62.35,-119.19,207,"lake sediment",Sieved,concentration,"Global Charcoal Database Version 4","central core",2021-05-07,152,292,447,CA,CAN
376,449,"Andy Lake core",61.95,-109.81,360,"lake sediment",Sieved,concentration,"Global Charcoal Database Version 4","central core",2021-05-07,152,293,449,CA,CAN
377,452,"Jason core",61.68,-107.78,120,"lake sediment",Sieved,concentration,"Global Charcoal Database Version 4","central core",2021-05-07,152,294,452,CA,CAN
378,454,"Corral Lake core",57.32,-100.85,75,"lake sediment",Sieved,concentration,"Global Charcoal Database Version 4",-999999,2021-05-07,152,295,454,CA,CAN
379,456,"Two Hill Lake core",55.98,-97.28,200,"lake sediment",Sieved,concentration,"Global Charcoal Database Version 4","central core",2021-05-07,152,296,456,CA,CAN
380,457,"OK Lake core",54.8,-95.25,108,"lake sediment",Sieved,concentration,"Global Charcoal Database Version 4","central core",2021-05-07,152,297,457,CA,CAN
382,460,"Lily Pond Warwick core",42.68,-72.33,269,"lake sediment","Pollen slide",count,"Global Charcoal Database Version 4",-777777,2021-12-10,152,298,460,US,USA
383,461,"Otter Pond core",42.65,-72.53,107,"lake sediment","Pollen slide",influx,"Global Charcoal Database Version 4","central core",2021-12-10,149,299,461,US,USA
384,462,"Aino Pond core",42.680759,-71.925514,354,"lake sediment","Pollen slide",influx,IMPD,"central core",2021-12-10,149,300,462,US,USA
386,464,"Green Pond core",42.56,-72.51,80,"lake sediment","Pollen slide",influx,"Global Charcoal Database Version 4","central core",2021-12-10,149,301,464,US,USA
387,465,"LG4-01 core",54.0358,-72.8728,470,"lake sediment","Pollen slide",influx,"Global Charcoal Database Version 4",-999999,2021-05-07,149,302,465,CA,CAN
388,466,"LG4-05 core",54.0633,-72.9153,350,"lake sediment","Pollen slide",influx,"Global Charcoal Database Version 4",-999999,2021-05-07,149,303,466,CA,CAN
389,467,"LG4-06 core",54.075,-72.9419,365,"lake sediment","Pollen slide",influx,"Global Charcoal Database Version 4",-999999,2021-05-07,149,304,467,CA,CAN
390,468,"LG4-09 core",54.9011,-72.7772,442,"lake sediment","Pollen slide",influx,"Global Charcoal Database Version 4",-999999,2021-05-07,149,305,468,CA,CAN
391,469,"LG4-12 core",52.8428,-73.3164,534,"lake sediment","Pollen slide",influx,"Global Charcoal Database Version 4",-999999,2021-05-07,149,306,469,CA,CAN
392,470,"Warrananga core",-33.97,141.56,22,"lake sediment","Pollen slide",concentration,"Global Charcoal Database Version 4",-777777,2020-03-06,152,307,470,AU,AUS
393,471,"Byenup Lagoon Site 1",-34.46,116.73,175,"bog sediment","Pollen slide",concentration,"Global Charcoal Database Version 4","central core",2021-05-07,152,308,471,AU,AUS
394,472,"Wet Lagoon core",-34.805,149.452925,700,"bog sediment","Pollen slide",influx,"Global Charcoal Database Version 4","central core",2021-12-23,28,309,472,AU,AUS
395,473,"Bobundara Swamp core",-36.5833,150.06,75,"bog sediment","Pollen slide",concentration,"Global Charcoal Database Version 4","central core",2021-05-07,156,310,473,AU,AUS
396,474,"Kurnell Fen core",-34.01,151.1,15,"bog sediment","Pollen slide",concentration,"Global Charcoal Database Version 4",-777777,2020-03-06,25,311,474,AU,AUS
397,475,"Ryans Swamp core",-35.09,150.39,8,"bog sediment","Pollen slide",concentration,"Global Charcoal Database Version 4",-777777,2020-03-06,137,312,475,AU,AUS
401,480,"Nelson Lake core",41.83278,-88.38,211,"lake sediment",Sieved,influx,"Global Charcoal Database Version 4","central core",2021-05-07,15,313,480,US,USA
402,481,"Chatsworth Bog core",40.67583,-88.32306,290,"lake sediment",Sieved,influx,"Global Charcoal Database Version 4","central core",2021-12-23,15,314,481,US,USA
403,482,"Bohult Hollow core",57.2333,16.1667,77,"small hollow",Sieved,concentration,"Global Charcoal Database Version 4","central core",2021-05-07,17,315,482,SE,SWE
404,483,STV05,57.024167,14.813056,187,"bog sediment","Pollen slide",concentration,"Global Charcoal Database Version 4","central core",2021-05-07,53,316,483,SE,SWE
405,484,"Lake Chignahuapan core",19.16,-99.53,2570,"lake sediment","Pollen slide",concentration,"Global Charcoal Database Version 4",-777777,2020-03-06,43,317,484,MX,MEX
406,485,"Lago Verde core",18.61,-95.34,149,"lake sediment",Sieved,influx,"Global Charcoal Database Version 4",-777777,2020-03-06,84,318,485,MX,MEX
408,487,"Sacramento Mountains core",32.84,-105.7,2400,soil,"Cumulative probability (95% confidence interval) alluvial soil charcoal",other,"Global Charcoal Database Version 4",-777777,2020-03-06,131,319,487,US,USA
409,488,"Las Pardillas core",42.0333,-3.0333,1850,"lake sediment",Sieved,concentration,"Global Charcoal Database Version 4","central core",2021-05-07,29,320,488,ES,ESP
411,490,"Ballachrink core",54.37,-4.47,20,"bog sediment","Pollen slide","pollen concentration","Global Charcoal Database Version 4",-777777,2020-03-06,4,321,490,IM,IMN
417,496,"Rock Arch Swamp core",-34.3,150.39,575,"bog sediment","Pollen slide",concentration,"Global Charcoal Database Version 4",-777777,2020-03-06,123,322,496,AU,AUS
418,497,"CSBA core",-35.755,148.8575,1755,"bog sediment","Pollen slide",concentration,"Global Charcoal Database Version 4","central core",2021-05-07,123,323,497,AU,AUS
419,498,"Tom Gregory Swamp core",-35.64833,148.8305,1024,"bog sediment","Pollen slide",concentration,"Global Charcoal Database Version 4","central core",2021-05-07,137,324,498,AU,AUS
420,499,"Rennix Gap core",-36.22,148.3,1570,"bog sediment","Pollen slide",other,"Global Charcoal Database Version 4",-777777,2020-03-06,161,325,499,AU,AUS
421,500,"Ginini Flats core_oth",-35.31,148.46,1590,"bog sediment","Pollen slide",other,"Global Charcoal Database Version 4",-777777,2020-03-06,161,326,500,AU,AUS
421,501,"Ginini Flats core_count",-35.31,148.46,1590,"bog sediment","Pollen slide",concentration,"Global Charcoal Database Version 4",-777777,2020-03-06,137,327,501,AU,AUS
422,502,DP3,-41.50278,146.34167,350,"fluvial/alluvial sediment","Pollen slide","pollen concentration","Global Charcoal Database Version 4",-888888,2021-05-07,126,328,502,AU,AUS
423,503,"Nursery Swamp core",-35.675567,148.9672,1092,"bog sediment","Pollen slide","pollen concentration","Global Charcoal Database Version 4","central core",2021-05-07,164,329,503,AU,AUS
424,504,"Badu 15_conc",-10.06,142.09,20,archaeological,Sieved,concentration,"Global Charcoal Database Version 4",-888888,2021-05-07,11,330,504,AU,AUS
424,505,"Badu 15_count",-10.06,142.09,20,archaeological,"Pollen slide",concentration,"Global Charcoal Database Version 4",-888888,2021-05-07,137,331,505,AU,AUS
425,506,"Argan Swamp core_conc",-10.05,142.06,3,"bog sediment",Sieved,concentration,"Global Charcoal Database Version 4",-777777,2020-03-06,11,332,506,AU,AUS
425,507,"Argan Swamp core_count",-10.05,142.06,3,"bog sediment","Pollen slide",concentration,"Global Charcoal Database Version 4",-777777,2020-03-06,137,333,507,AU,AUS
426,508,"Talita Kupai core_conc",-10.1,142.12,33,soil,Sieved,concentration,"Global Charcoal Database Version 4",-777777,2020-03-06,11,334,508,AU,AUS
426,509,"Talita Kupai core_count",-10.1,142.12,33,soil,"Pollen slide",concentration,"Global Charcoal Database Version 4",-777777,2020-03-06,137,335,509,AU,AUS
427,510,"Waruid core_conc",-10.4,142.09,5,soil,Sieved,concentration,"Global Charcoal Database Version 4",-888888,2021-05-07,11,336,510,AU,AUS
427,511,"Waruid core_count",-10.4,142.09,5,soil,"Pollen slide",concentration,"Global Charcoal Database Version 4",-888888,2021-05-07,137,337,511,AU,AUS
428,512,"Tiam Point core",-10.12,142.18,3,"bog sediment","Pollen slide",concentration,"Global Charcoal Database Version 4","central core",2021-05-07,137,338,512,AU,AUS
429,513,"gtr125 conc",-10.1,142.14,10,"bog sediment",Sieved,concentration,"Global Charcoal Database Version 4","central core",2021-05-07,11,339,513,AU,AUS
430,514,"Bar20 core",-10.1,142.12,18,"bog sediment",Sieved,concentration,"Global Charcoal Database Version 4","central core",2021-05-07,11,340,514,AU,AUS
431,515,"Zurath Islet core_count",-10.16,142.06,3,"bog sediment","Pollen slide",concentration,"Global Charcoal Database Version 4","central core",2021-05-07,137,341,515,AU,AUS
431,516,"Zurath Islet core_conc",-10.16,142.06,3,"bog sediment",Sieved,concentration,"Global Charcoal Database Version 4","central core",2021-05-07,11,342,516,AU,AUS
432,517,"Muellers Rock core",-35.39,148.5,1102,"fluvial/alluvial sediment","Pollen slide",concentration,"Global Charcoal Database Version 4",-777777,2020-03-06,123,343,517,AU,AUS
440,525,"El Carrizal core",41.3185,-4.145,860,"lake sediment","Pollen slide",concentration,"Global Charcoal Database Version 4","central core",2021-05-07,152,344,525,ES,ESP
442,527,"Lake Sibaya core",-27.2,32.36,20,"lake sediment","Pollen slide","pollen concentration","Global Charcoal Database Version 4",-777777,2020-03-06,55,345,527,ZA,ZAF
443,528,"Funduzi core",-22.85,30.89,429,"bog sediment","Pollen slide",concentration,"Global Charcoal Database Version 4",-777777,2020-03-06,22,346,528,ZA,ZAF
444,529,"Kalksjon core",60.13,13.05,98,"lake sediment",Sieved,influx,"Global Charcoal Database Version 4","central core",2021-12-23,149,347,529,SE,SWE
445,530,"Tel 2001-02",51.529167,87.714722,1900,"lake sediment","Pollen slide","pollen concentration","Global Charcoal Database Version 4","central core",2021-05-19,23,348,530,RU,RUS
446,531,"Griblje Marsh core",45.56,15.27,160,"bog sediment","Pollen slide",concentration,"Global Charcoal Database Version 4",-777777,2020-03-06,32,350,531,SI,SVN
447,532,"Canada de la Cruz core",38.0675,-2.6875,1595,"lake sediment","Pollen slide",concentration,"Global Charcoal Database Version 4","central core",2020-11-13,22,351,532,ES,ESP
448,533,"Villaverde core",38.8,-2.3667,870,"bog sediment","Pollen slide",concentration,"Global Charcoal Database Version 4","central core",2021-05-07,22,352,533,ES,ESP
452,537,"Xujianan core",35.5,106,1620,loess,"Charcoal separated by heavy liquid preparation",concentration,"Global Charcoal Database Version 4",-777777,2020-03-06,50,353,537,CN,CHN
457,542,"AZU 02_11_influx",-52.12,-69.52,100,"lake sediment",Sieved,influx,"Global Charcoal Database Version 4","central core",2021-05-07,8,354,542,AR,ARG
457,543,"AZU 02_11_conc",-52.12,-69.52,100,"lake sediment","Pollen slide","pollen concentration","Global Charcoal Database Version 4","central core",2021-05-07,24,355,543,AR,ARG
458,544,"Crevice Lake core",45,-110.578,1713,"lake sediment",Sieved,influx,"Global Charcoal Database Version 4","central core",2021-05-07,10,356,544,US,USA
459,545,"Les Comailles core",47.66,3.22,215,"bog sediment",Sieved,influx,"Global Charcoal Database Version 4",-777777,2020-03-06,10,357,545,FR,FRA
460,546,"Gabarn core",43.17168,-0.555514,310,"bog sediment",Sieved,concentration,"Global Charcoal Database Version 4","central core",2021-12-23,11,358,546,FR,FRA
461,547,"Elferdalen core",59.65,9.3,380,"bog sediment",Sieved,influx,"Global Charcoal Database Version 4",-777777,2020-03-06,16,359,547,NO,NOR
462,548,"Gador core",36.9,-2.9167,1530,"bog sediment","Pollen slide",concentration,"Global Charcoal Database Version 4","central core",2021-05-07,22,360,548,ES,ESP
464,550,"Kragso core",56.21,9.02,47,"lake sediment","Pollen slide",influx,"Global Charcoal Database Version 4",-777777,2020-03-06,149,361,550,DK,DNK
465,551,"Lac du Lait core",45.31,6.81,2180,"lake sediment",Sieved,influx,"Global Charcoal Database Version 4",-777777,2020-03-06,149,362,551,FR,FRA
466,552,"Lac du Thyl core",45.24,6.49,2038,"bog sediment",Sieved,influx,"Global Charcoal Database Version 4",-777777,2020-03-06,149,363,552,FR,FRA
467,553,PGB1,46.16,10.15,1350,"bog sediment",Sieved,concentration,"Global Charcoal Database Version 4","central core",2021-05-19,6,364,553,IT,ITA
468,554,"Lac Miroir core",44.63,6.79,2214,-777777,Sieved,influx,"Global Charcoal Database Version 4",-777777,2020-03-06,149,365,554,FR,FRA
1691,555,NAVARRE3,39.1,-0.6833,225,"bog sediment",Sieved,influx,PANGAEA,"central core",2021-03-26,149,366,555,ES,ESP
470,556,"Ojos del Tremendal core",40.5417,-2.045,1650,"bog sediment","Pollen slide",influx,"Global Charcoal Database Version 4","central core",2021-05-07,28,367,556,ES,ESP
471,557,"Plan Bouchet core",45.24,6.56,2405,"bog sediment",Sieved,influx,"Global Charcoal Database Version 4",-777777,2020-03-06,149,368,557,FR,FRA
472,558,"Skanso core",56.51,8.83,8,"lake sediment","Pollen slide",influx,"Global Charcoal Database Version 4",-777777,2020-03-06,149,369,558,DK,DNK
473,559,"Solso core",56.13,8.63,41,"lake sediment","Pollen slide",influx,"Global Charcoal Database Version 4",-777777,2020-03-06,149,370,559,DK,DNK
477,563,LLMII,53.08,-9.21,270,"bog sediment","Pollen slide","pollen concentration","Global Charcoal Database Version 4","central core",2021-05-07,65,371,563,IE,IRL
481,567,"Hatchodaira core",35.23,135.83,810,"lake sediment","Pollen slide",concentration,"Global Charcoal Database Version 4",-777777,2020-03-06,156,372,567,JP,JPN
482,568,"Ofuke core",35.65,135.18,528,"bog sediment",Sieved,concentration,"Global Charcoal Database Version 4",-777777,2021-06-04,17,373,568,JP,JPN
483,569,"Bolshoe bog core",51.46,104.5,450,"bog sediment","Pollen slide",concentration,"Global Charcoal Database Version 4","central core",2021-05-07,156,374,569,RU,RUS
484,570,"Duliha bog core",51.51,105,510,"bog sediment","Pollen slide",concentration,"Global Charcoal Database Version 4",-777777,2020-03-06,156,376,570,RU,RUS
485,571,"Cheremushuka bog core",52.75,108.08,462,"bog sediment","Pollen slide",concentration,"Global Charcoal Database Version 4","central core",2021-05-07,156,378,571,RU,RUS
486,572,"Duguldzeiri River bog core",54.45,109.53,529,"bog sediment","Pollen slide",concentration,"Global Charcoal Database Version 4",-777777,2020-03-06,156,380,572,RU,RUS
487,573,"Tompuda bog core",55.13,109.76,459,"bog sediment","Pollen slide",concentration,"Global Charcoal Database Version 4",-777777,2020-03-06,156,382,573,RU,RUS
488,574,"Maralay Alas core",63.116667,130.6,134,"bog sediment",Sieved,concentration,"Global Charcoal Database Version 4","central core",2021-05-19,303,384,574,RU,RUS
491,577,Lovnas_B,66.310833,17.900833,515,"lake sediment",Sieved,influx,"Global Charcoal Database Version 4","central core",2021-05-19,149,386,577,SE,SWE
492,578,"Nussbaumersee core NBS-B",47.6,8.81,450,"lake sediment","Pollen slide",influx,"Global Charcoal Database Version 4","central core",2021-12-23,10,387,578,CH,CHE
495,581,"Steerenmoos core",47.8167,8.1833,1000,"bog sediment","Pollen slide",influx,"Global Charcoal Database Version 4","central core",2021-05-07,10,388,581,DE,DEU
496,582,"Lake Lucerne core",47.05,8.59,434,"lake sediment","Charcoal particles identified by imaging software",influx,"Global Charcoal Database Version 4",-777777,2020-03-06,66,389,582,CH,CHE
499,585,"Xishuangbanna core",21.5,101.5,900,"bog sediment","Pollen slide","pollen concentration","Global Charcoal Database Version 4",-777777,2020-03-06,110,390,585,CN,CHN
501,587,"Maluyo Swamp core",18.18,121.58,5,-777777,Sieved,concentration,"Global Charcoal Database Version 4",-777777,2020-03-06,134,391,587,PH,PHL
502,588,"Paoay Lake LP3",18.2,120.54,15,"lake sediment",Sieved,concentration,"Global Charcoal Database Version 4",-777777,2020-03-06,25,392,588,PH,PHL
502,589,"Paoay Lake LP4",18.12,120.54,15,"lake sediment",Sieved,concentration,"Global Charcoal Database Version 4",-777777,2020-03-06,17,393,589,PH,PHL
504,590,"Quambie Lagoon core_gtr125",-12.5,131.17,20,"lake sediment",Sieved,concentration,"Global Charcoal Database Version 4",-777777,2020-03-06,11,394,590,AU,AUS
504,591,"Quambie Lagoon core_total",-12.5,131.17,20,"lake sediment",Sieved,concentration,"Global Charcoal Database Version 4",-777777,2020-03-06,167,395,591,AU,AUS
504,592,"Quambie Lagoon core_gtr25o",-12.5,131.17,20,"lake sediment",Sieved,concentration,"Global Charcoal Database Version 4",-777777,2020-03-06,17,396,592,AU,AUS
506,594,"Ajkwa 1 core",-4.86,136.96,1.3,"estuarine sediment","Pollen slide","pollen concentration","Global Charcoal Database Version 4",-777777,2020-03-06,164,397,594,ID,IDN
507,595,"Ajkwa 2 core",-4.86,136.96,1.3,"estuarine sediment","Pollen slide","pollen concentration","Global Charcoal Database Version 4",-777777,2020-03-06,164,398,595,ID,IDN
508,596,"Ajkwa 3 core",-4.86,136.96,1.3,"estuarine sediment","Pollen slide","pollen concentration","Global Charcoal Database Version 4",-777777,2020-03-06,164,399,596,ID,IDN
509,597,"Ajkwa 4 core",-4.86,136.96,1.3,"estuarine sediment","Pollen slide","pollen concentration","Global Charcoal Database Version 4",-777777,2020-03-06,164,400,597,ID,IDN
510,598,"Ajkwa 5 core",-4.86,136.96,1.3,"estuarine sediment","Pollen slide","pollen concentration","Global Charcoal Database Version 4",-777777,2020-03-06,164,401,598,ID,IDN
512,600,"Anumon Swamp core",-20.16,169.82,45,"bog sediment","Pollen slide",concentration,"Global Charcoal Database Version 4","central core",2021-05-07,156,402,600,VU,VUT
513,601,"Aru core",-5.91,134.2,1,"bog sediment","Pollen slide",concentration,"Global Charcoal Database Version 4",-777777,2020-03-06,156,403,601,ID,IDN
514,602,"Cameron's Lagoon core",-41.96,146.68,1045,"estuarine sediment","Pollen slide",concentration,"Global Charcoal Database Version 4",-777777,2020-03-06,156,404,602,AU,AUS
515,603,"Hogayaku core",-3.98,137.38,3580,"lake sediment","Pollen slide",concentration,"Global Charcoal Database Version 4",-777777,2020-03-06,123,405,603,ID,IDN
516,604,"Lake Hordorli_B",-2.53,140.55,680,"lake sediment","Pollen slide",concentration,Neotoma,-777777,2021-12-01,156,406,604,ID,IDN
518,606,"Mago Island core",-17.44,179.15,2,"bog sediment","Pollen slide",concentration,"Global Charcoal Database Version 4",-777777,2020-03-06,123,407,606,FJ,FJI
520,608,"Plum Swamp core",-22.26,166.61,40,"bog sediment","Pollen slide",concentration,"Global Charcoal Database Version 4",-777777,2020-03-06,123,408,608,NC,NCL
522,610,"Blue Lake Kosciuzko core",-36.14,148.43,1950,"lake sediment",Sieved,influx,"Global Charcoal Database Version 4",-999999,2021-05-07,149,409,610,AU,AUS
523,611,"Grey Pole Swamp core",-32.61,152.31,9,"bog sediment",Sieved,concentration,"Global Charcoal Database Version 4","central core",2022-01-05,123,410,611,AU,AUS
524,612,"Griffith Swamp core",-33.28,151,20,"bog sediment",Sieved,influx,"Global Charcoal Database Version 4",-777777,2020-03-06,149,411,612,AU,AUS
525,613,"Hopwoods Lagoon core",-33.21,150.99,38,"lake sediment",Sieved,concentration,"Global Charcoal Database Version 4",-777777,2020-03-06,123,412,613,AU,AUS
526,614,"Howes Waterhole Swamp core",-33.01,150.66,280,"bog sediment",Sieved,influx,"Global Charcoal Database Version 4",-777777,2020-03-06,149,413,614,AU,AUS
528,616,"Kings Waterhole core",-33.01,150.66,280,"lake sediment",Sieved,influx,"Global Charcoal Database Version 4","central core",2021-05-07,149,414,616,AU,AUS
529,617,"Lake Couridjah Thirlmere Lakes core",-34.23,150.54,310,"lake sediment",Sieved,concentration,"Global Charcoal Database Version 4",-777777,2020-03-06,17,415,617,AU,AUS
530,618,"Lake Curlip core",-37.83,148.56,2,"lake sediment","Pollen slide",influx,"Global Charcoal Database Version 4",-777777,2020-03-06,28,416,618,AU,AUS
531,619,"Lashmars Lagoon core",-35.8,138.067,2,-777777,"Pollen slide",concentration,"Global Charcoal Database Version 4","central core",2021-05-07,134,417,619,AU,AUS
532,620,"Main Lake Tower Hill core",-38.31,142.36,20,"lake sediment","Pollen slide",concentration,"Global Charcoal Database Version 4","central core",2021-12-23,134,418,620,AU,AUS
533,621,"MAMIII core",53.405608,-10.022521,250,"lake sediment",Sieved,"pollen concentration","Global Charcoal Database Version 4","central core",2021-05-07,164,419,621,IE,IRL
534,623,"Derrycunihy Wood core",52.01,-9.41,75,"small hollow","Pollen slide",concentration,"Global Charcoal Database Version 4","central core",2021-05-07,134,420,623,IE,IRL
535,624,"Camillan Wood core",52.03,-9.56,17,"small hollow","Pollen slide",concentration,"Global Charcoal Database Version 4","central core",2021-05-07,134,421,624,IE,IRL
536,625,"Mongan Bog core",53.33,-7.93,45,"bog sediment",Sieved,"pollen concentration","Global Charcoal Database Version 4",-777777,2020-03-06,164,422,625,IE,IRL
537,626,"Abbeyknockmoy Bog core",53.44,-8.76,60,"bog sediment",Sieved,"pollen concentration","Global Charcoal Database Version 4",-777777,2020-03-06,164,423,626,IE,IRL
538,627,"Loch an t'Suidhe core",56.31259918,-6.25375223,32,"lake sediment","Pollen slide",influx,"Global Charcoal Database Version 4","marginal core",2021-05-19,28,424,627,GB,GBR
539,628,"Loch Buailaval Beag core",58.265056,-6.770299,50,"lake sediment","Pollen slide",concentration,"Global Charcoal Database Version 4","central core",2021-12-01,134,425,628,GB,GBR
540,629,"Loch a'Phuinnd core",57.366667,-7.266667,10,"lake sediment","Pollen slide",concentration,"Global Charcoal Database Version 4","central core",2021-12-01,134,426,629,GB,GBR
541,630,"Crag Lough core",55.006008,-2.3673827,250,"lake sediment","Pollen slide",concentration,"Global Charcoal Database Version 4","marginal core",2021-05-07,124,427,630,GB,GBR
542,631,"Dallican Water core",60.39167,-1.1,56,"lake sediment","Pollen slide",concentration,Neotoma,"central core",2021-12-01,25,428,631,GB,GBR
544,633,"Cothill Fen core",51.68,-1.32,-777777,-777777,"Pollen slide",concentration,"Global Charcoal Database Version 4",-777777,2020-03-06,134,429,633,GB,GBR
546,635,"Bolton Fell Moss core",55.02,-2.85,110,-777777,"Pollen slide","pollen concentration","Global Charcoal Database Version 4",-777777,2020-03-06,126,430,635,GB,GBR
549,638,"Anstey's Combe core",51.054451,-3.6747154,282,"bog sediment","Pollen slide",concentration,"Global Charcoal Database Version 4","central core",2021-05-19,130,431,638,GB,GBR
552,642,"Braamhoek core",-28.23,25.58,1700,"bog sediment","Pollen slide",concentration,"Global Charcoal Database Version 4",-777777,2020-03-06,52,432,642,ZA,ZAF
553,643,"ESK 96/99",38.55,34.54,1270,"lake sediment","Pollen slide",influx,"Global Charcoal Database Version 4","central core",2021-12-23,28,433,643,TR,TUR
554,644,"Nar core",38.37,34.45,1363,"lake sediment","Pollen slide",influx,"Global Charcoal Database Version 4","central core",2021-12-23,28,434,644,TR,TUR
555,645,"Moreletta River core 1",-28.82,30.99,417,"fluvial/alluvial sediment","Pollen slide",concentration,"Global Charcoal Database Version 4",-777777,2020-03-06,22,435,645,ZA,ZAF
556,646,N-GUA_macro,41.4083,-0.2278,336,"lake sediment",Sieved,concentration,author,"central core",2021-05-07,154,436,646,ES,ESP
556,647,N-GUA_micro,41.4083,-0.2278,336,"lake sediment","Pollen slide",concentration,author,"central core",2021-05-07,147,437,647,ES,ESP
557,648,"Aire Crossing core",-38.64,143.47,180,"lake sediment","Pollen slide",concentration,"Global Charcoal Database Version 4",-777777,2020-03-06,123,438,648,AU,AUS
363,649,"Bondi Lake South Core",-36.8,149.93,22,"lake sediment","Pollen slide","pollen concentration","Global Charcoal Database Version 4","marginal core",2021-05-07,126,439,649,AU,AUS
559,650,"Lake Condah core",-38.06,141.83,60,"lake sediment","Pollen slide",concentration,"Global Charcoal Database Version 4",-999999,2021-05-07,134,440,650,AU,AUS
560,651,"Tea Tree Swamp Core DRA",-37.21,148.83,900,"bog sediment","Pollen slide","pollen concentration","Global Charcoal Database Version 4",-777777,2020-03-06,126,441,651,AU,AUS
560,652,"Tea Tree Swamp Core DRE",-37.21,148.83,900,"bog sediment","Pollen slide","pollen concentration","Global Charcoal Database Version 4",-777777,2020-03-06,126,442,652,AU,AUS
560,653,"Tea Tree Swamp Core DRN-A",-37.21,148.83,900,"bog sediment","Pollen slide","pollen concentration","Global Charcoal Database Version 4",-777777,2020-03-06,126,443,653,AU,AUS
563,654,"Wildes Meadow Swamp core",-34.62,150.51,670,"bog sediment","Pollen slide","pollen concentration","Global Charcoal Database Version 4",-777777,2020-03-06,126,444,654,AU,AUS
564,655,"South Salvation Creek Swamp core",-33.63,151.25,132,"bog sediment","Pollen slide","pollen concentration","Global Charcoal Database Version 4",-777777,2020-03-06,126,445,655,AU,AUS
565,656,"Bridgewater Lake Core B",-38.3,141.38,20,"lake sediment","Pollen slide","pollen concentration","Global Charcoal Database Version 4","central core",2021-05-07,126,446,656,AU,AUS
566,657,"Kelela Swamp core",-4.02,138.91,1650,"bog sediment","Pollen slide",concentration,"Global Charcoal Database Version 4","central core",2021-12-23,123,447,657,ID,IDN
569,660,"Laravita core",-8.39,147.35,3570,"bog sediment","Pollen slide",concentration,"Global Charcoal Database Version 4",-777777,2020-03-06,156,448,660,PG,PNG
570,661,"Aguai Ramata core",-6.56,145.21,1950,"lake sediment",Sieved,concentration,"Global Charcoal Database Version 4",-777777,2020-03-06,134,449,661,PG,PNG
571,662,"Sondambile core",-6.34,147.11,2850,"lake sediment",Sieved,concentration,"Global Charcoal Database Version 4",-777777,2020-03-06,134,450,662,PG,PNG
572,663,"Greens Bush core",-38.43,144.93,160,"bog sediment","Pollen slide",concentration,"Global Charcoal Database Version 4",-777777,2020-03-06,146,451,663,AU,AUS
574,665,"Katoomba Swamp core",-33.71,150.31,950,"bog sediment","Pollen slide",concentration,"Global Charcoal Database Version 4","central core",2021-05-07,56,452,665,AU,AUS
575,666,"Wanum core",-6.63,146.79,35,"lake sediment",Sieved,concentration,"Global Charcoal Database Version 4",-777777,2020-03-06,134,453,666,PG,PNG
577,668,"Lake Johnston core",-41.86,145.55,900,"lake sediment","Pollen slide",concentration,"Global Charcoal Database Version 4",-777777,2020-03-06,170,454,668,AU,AUS
578,669,"Loch Sport Swamp core",-37.96,147.68,2,"lake sediment","Pollen slide",concentration,"Global Charcoal Database Version 4",-777777,2020-03-06,60,455,669,AU,AUS
579,670,"Long Swamp core",-38.08,141.08,2,"bog sediment","Pollen slide",concentration,"Global Charcoal Database Version 4","central core",2021-05-07,146,456,670,AU,AUS
580,671,"Yawi Ti core",-6.61,143.88,1150,"bog sediment",Sieved,concentration,"Global Charcoal Database Version 4",-777777,2020-03-06,134,457,671,PG,PNG
583,674,"Breadalbane core",-34.8,149.51,694,"lake sediment","Pollen slide",influx,"Global Charcoal Database Version 4","central core",2021-05-07,149,458,674,AU,AUS
584,675,"Brooks Ridge Fen core",-36.15,148.59,1450,"bog sediment","Pollen slide",concentration,"Global Charcoal Database Version 4",-777777,2020-03-06,17,459,675,AU,AUS
585,676,"Burralow Creek Swamp core",-33.53,150.63,320,"bog sediment","Pollen slide",concentration,"Global Charcoal Database Version 4",-777777,2020-03-06,56,460,676,AU,AUS
586,677,"Chapple Vale Swamp core",-38.62,143.32,30,"bog sediment","Pollen slide",concentration,"Global Charcoal Database Version 4",-777777,2020-03-06,60,461,677,AU,AUS
587,678,"Club Lake core",-36.4,148.31,1980,"lake sediment","Pollen slide",influx,"Global Charcoal Database Version 4",-777777,2020-03-06,28,462,678,AU,AUS
591,682,"Kurnell Swamp core",-34.03,151.21,2,"bog sediment","Pollen slide",influx,"Global Charcoal Database Version 4",-777777,2020-03-06,149,463,682,AU,AUS
593,684,"Pian Segna core",46.18,8.63,1162,"lake sediment","Pollen slide",concentration,"Global Charcoal Database Version 4",-777777,2020-03-06,60,464,684,IT,ITA
594,685,"Lago di Fimon core",45.4667,11.5333,23,"lake sediment","Pollen slide",influx,"Global Charcoal Database Version 4","central core",2021-05-19,28,465,685,IT,ITA
632,687,"Rotten Swamp_high-res core",-35.7,148.88,1445,"bog sediment","Pollen slide",concentration,"Global Charcoal Database Version 4",-777777,2021-12-23,156,466,687,AU,AUS
597,688,"Sundown Swamp core",-41.16,144.66,10,"bog sediment","Pollen slide",concentration,"Global Charcoal Database Version 4",-777777,2021-12-01,156,467,688,AU,AUS
598,689,"Egg Lagoon core",-39.65,143.95,20,-777777,"Pollen slide",concentration,"Global Charcoal Database Version 4",-777777,2020-03-06,106,468,689,AU,AUS
605,696,"Hoya del Castillo N-CAS",41.482,-0.1583,258,"lake sediment",Other,concentration,"Global Charcoal Database Version 4","central core",2020-04-20,154,469,696,ES,ESP
605,697,"Hoya del Castillo N-CAS macro",41.482,-0.1583,258,"lake sediment","Pollen slide",concentration,"Global Charcoal Database Version 4","central core",2020-04-20,147,470,697,ES,ESP
608,700,"Lac du Loup core",45.18,6.53,2032,"lake sediment",Sieved,influx,"Global Charcoal Database Version 4",-777777,2020-03-06,149,471,700,FR,FRA
609,701,"Gorgo Basso core GL3",37.61,12.65,6,"lake sediment","Pollen slide",concentration,Neotoma,"central core",2021-12-01,6,472,701,IT,ITA
611,703,"Fusedame HTJ-10",35.08,136.18,120,"lake sediment",Sieved,concentration,"Global Charcoal Database Version 4",-777777,2020-03-06,85,473,703,JP,JPN
612,704,"Amont core",53.73,-74.38,335,"bog sediment",Sieved,concentration,"Global Charcoal Database Version 4",-777777,2020-03-06,29,474,704,CA,CAN
613,705,"Aval core",53.41,-73.86,335,"bog sediment",Sieved,concentration,"Global Charcoal Database Version 4",-777777,2020-03-06,29,475,705,CA,CAN
614,706,"Lac des Ilets core",48.19,-71.24,120,"bog sediment","Pollen slide","pollen concentration","Global Charcoal Database Version 4",-777777,2020-03-06,23,476,706,CA,CAN
615,707,"QS 3",-33.9,150.59,665,"bog sediment","Pollen slide",influx,"Global Charcoal Database Version 4",-777777,2020-03-06,149,477,707,AU,AUS
616,708,"Worimi Swamp core",-32.51,152.33,8,"bog sediment",Sieved,influx,"Global Charcoal Database Version 4",-777777,2020-03-06,149,478,708,AU,AUS
617,709,W2,-34.56,150.51,685,"bog sediment",Sieved,influx,"Global Charcoal Database Version 4",-777777,2020-03-06,149,479,709,AU,AUS
618,710,"Bonatoa core",-18.07,178.53,4,"bog sediment","Pollen slide",concentration,"Global Charcoal Database Version 4","central core",2021-05-07,152,480,710,FJ,FJI
620,712,"Durankulak 3",43.67,28.55,0.4,"lake sediment","Pollen slide",concentration,author,"marginal core",2021-07-28,6,481,712,RO,ROU
621,713,"Mozgovitsa River core",41.41,23.11,1800,"bog sediment",Sieved,concentration,author,"central core",2021-07-28,45,482,713,BG,BGR
622,714,"Lake Ostrezko-2 core",42.13,23.46,2320,"lake sediment",Sieved,concentration,author,"central core",2021-07-28,45,483,714,BG,BGR
623,715,"Lake Ostrezko-3 core",42.13,23.46,2340,"lake sediment",Sieved,concentration,author,"central core",2021-07-28,45,484,715,BG,BGR
624,716,"Resnikov prekop core_gtr40",45.97,14.54,290,"bog sediment","Pollen slide",concentration,"Global Charcoal Database Version 4",-999999,2021-05-07,19,485,716,SI,SVN
624,717,"Resnikov prekop core_less40",45.97,14.54,290,"bog sediment","Pollen slide",concentration,"Global Charcoal Database Version 4",-999999,2021-05-07,5,486,717,SI,SVN
626,719,"Blundells Flat B_macro",-35.19,148.49,762,"bog sediment",Sieved,concentration,"Global Charcoal Database Version 4","central core",2021-05-07,174,487,719,AU,AUS
626,720,"Blundells Flat A_micro",-35.19,148.49,762,"bog sediment","Pollen slide",concentration,"Global Charcoal Database Version 4","central core",2021-05-07,156,488,720,AU,AUS
628,722,"Cobrico Swamp core",-38.3,143.03,140,"bog sediment","Pollen slide",concentration,"Global Charcoal Database Version 4","marginal core",2021-05-07,152,489,722,AU,AUS
629,723,"Mill Creek core",-33.4,151.03,4,"estuarine sediment","Pollen slide",concentration,"Global Charcoal Database Version 4",-777777,2020-03-06,152,490,723,AU,AUS
630,724,"Jibbon Lagoon core 1",-34.08,151.15,65,-777777,Sieved,influx,"Global Charcoal Database Version 4",-777777,2020-03-06,16,491,724,AU,AUS
630,725,"Jibbon Lagoon core 2",-34.08,151.15,65,-777777,Sieved,influx,"Global Charcoal Database Version 4",-777777,2020-03-06,16,492,725,AU,AUS
631,726,"Lake Flannigan King Island core 1",-39.6,143.95,40,"lake sediment","Pollen slide",concentration,"Global Charcoal Database Version 4",-777777,2020-03-06,106,493,726,AU,AUS
632,727,"Rotten Swamp Core 4",-35.7,148.88,1445,"bog sediment","Pollen slide",concentration,"Global Charcoal Database Version 4",-777777,2020-03-06,114,494,727,AU,AUS
633,728,"McKenzie Road Bog core",-38.43,146.76,50,"bog sediment","Pollen slide",concentration,"Global Charcoal Database Version 4",-777777,2020-03-06,152,495,728,AU,AUS
393,731,"Byenup Lagoon Site 2",-34.46,116.71,175,"bog sediment","Pollen slide",concentration,"Global Charcoal Database Version 4","central core",2021-05-07,152,496,731,AU,AUS
637,732,"Navatu core",-18.07,178.53,4,"bog sediment","Pollen slide",concentration,"Global Charcoal Database Version 4",-777777,2020-03-06,152,497,732,FJ,FJI
638,733,"Sari core",-16.63,179.5,67,"bog sediment","Pollen slide",concentration,"Global Charcoal Database Version 4",-777777,2020-03-06,152,498,733,FJ,FJI
639,734,"Vunimoli core",-18.22,177.88,251,"bog sediment","Pollen slide",concentration,"Global Charcoal Database Version 4",-777777,2020-03-06,152,499,734,FJ,FJI
640,735,"Waitabu core",-18.23,-178.78,43,other,"Pollen slide",concentration,"Global Charcoal Database Version 4",-777777,2020-03-06,152,500,735,WF,WLF
641,736,"Sarup So core",55.2,10.06,NULL,"bog sediment",Sieved,influx,"Global Charcoal Database Version 4","central core",2021-12-23,149,501,736,DK,DNK
642,737,"Holtjarnen core",60.65,14.916667,232,"lake sediment",Sieved,influx,"Global Charcoal Database Version 4","central core",2021-05-19,149,502,737,SE,SWE
643,738,"Klotjarnen core",61.816667,16.533333,235,"lake sediment",Sieved,influx,"Global Charcoal Database Version 4","central core",2021-05-19,149,503,738,SE,SWE
644,739,"BL05B core",44.917167,123.296333,69,"lake sediment",-999999,concentration,"Global Charcoal Database Version 4","central core",2021-05-07,11,504,739,CN,CHN
645,740,AKI,13.33,39.36,2171,soil,"Hand picked charcoal from soil samples",concentration,"Global Charcoal Database Version 4",-888888,2021-05-07,45,505,740,ET,ETH
646,741,AKII,13.33,39.36,2171,soil,"Hand picked charcoal from soil samples",concentration,"Global Charcoal Database Version 4",-888888,2021-05-07,45,506,741,ET,ETH
647,742,AKIII,13.332167,39.3646,2171,soil,"Hand picked charcoal from soil samples",concentration,"Global Charcoal Database Version 4",-888888,2021-12-23,45,507,742,ET,ETH
648,743,MMI,13.583833,39.3646,2228,soil,"Hand picked charcoal from soil samples",concentration,"Global Charcoal Database Version 4",-888888,2021-12-23,45,508,743,ET,ETH
649,744,MMII,13.583625,39.568911,2228,soil,"Hand picked charcoal from soil samples",concentration,"Global Charcoal Database Version 4",-888888,2021-12-23,45,509,744,ET,ETH
650,745,MMIII,13.578578,39.567956,2228,soil,"Hand picked charcoal from soil samples",concentration,"Global Charcoal Database Version 4",-888888,2021-12-23,45,510,745,ET,ETH
651,746,AT1,14.270433,39.447827,2493,soil,"Hand picked charcoal from soil samples",concentration,"Global Charcoal Database Version 4",-888888,2021-12-23,45,511,746,ET,ETH
652,747,"Hardibo core",11.23,39.76,2150,"lake sediment",Sieved,concentration,"Global Charcoal Database Version 4",-777777,2020-03-06,152,512,747,ET,ETH
653,748,"Hayk core",11.35,39.71,1920,"lake sediment",Sieved,concentration,"Global Charcoal Database Version 4",-777777,2020-03-06,152,513,748,ET,ETH
655,750,"Lombok Ridge Core G6-4_B",-10.78,118.06,-3510,"lake sediment","Pollen slide","pollen concentration","Global Charcoal Database Version 4",-777777,2021-12-23,23,514,750,ID,IDN
657,752,"Lynchs Crater core A",-17.36,145.7,760,"bog sediment",Sieved,concentration,"Global Charcoal Database Version 4","central core",2021-05-07,134,515,752,AU,AUS
658,753,"Dove Lake core",-41.658056,145.961944,934,"lake sediment","Pollen slide",other,"Global Charcoal Database Version 4","marginal core",2021-05-07,121,516,753,AU,AUS
659,754,"Ringarooma River site I",-41.3,147.61,885,"bog sediment","Pollen slide",concentration,"Global Charcoal Database Version 4",-777777,2020-03-06,152,517,754,AU,AUS
659,755,"Ringarooma River site II",-41.3,147.61,885,"bog sediment","Pollen slide",concentration,"Global Charcoal Database Version 4",-777777,2020-03-06,152,518,755,AU,AUS
661,756,"CSBM core",-35.755,148.8575,1755,"bog sediment","Pollen slide",concentration,"Global Charcoal Database Version 4","marginal core",2021-12-23,123,519,756,AU,AUS
662,757,"Dalhousie Springs core",-26.41,135.52,150,"bog sediment","Pollen slide",other,"Global Charcoal Database Version 4",-777777,2020-03-06,104,520,757,AU,AUS
663,758,"Micalong Swamp core MS3",-35.33,148.51,1100,"bog sediment","Pollen slide","pollen concentration","Global Charcoal Database Version 4","central core",2021-05-07,126,521,758,AU,AUS
664,759,"Mulloon CS core",-35.396667,149.585,799,"bog sediment","Pollen slide",concentration,"Global Charcoal Database Version 4","central core",2021-05-07,152,522,759,AU,AUS
665,760,"Snowy Flats core",-35.5655,148.864167,1618,"bog sediment","Pollen slide",concentration,"Global Charcoal Database Version 4","central core",2021-05-07,159,523,760,AU,AUS
666,761,"Solomons Jewel Lake core",-41.8,146.26,1185,"lake sediment","Pollen slide","pollen concentration","Global Charcoal Database Version 4","marginal core",2021-05-07,126,524,761,AU,AUS
667,762,"Yaouk Swamp core",-35.49,148.5,1100,"bog sediment","Pollen slide",concentration,"Global Charcoal Database Version 4","central core",2021-05-07,152,525,762,AU,AUS
668,763,"Bega Swamp core",-36.51,149.5,1080,"bog sediment","Pollen slide",concentration,"Global Charcoal Database Version 4","central core",2021-05-07,152,526,763,AU,AUS
669,764,"Bolin Billabong combined core",-37.7667,145.0667,50,"fluvial/alluvial sediment","Pollen slide",concentration,"Global Charcoal Database Version 4","central core",2021-05-07,134,527,764,AU,AUS
670,765,"Evoran Pond core",-18.76,169.01,194,"lake sediment","Pollen slide",concentration,"Global Charcoal Database Version 4",-777777,2020-03-06,156,528,765,VU,VUT
672,767,"Hogan's Billabong core",-36.02,146.71,140,"fluvial/alluvial sediment","Pollen slide",concentration,"Global Charcoal Database Version 4",-777777,2020-03-06,134,529,767,AU,AUS
673,768,"Lake Hordern core",-38.78,143.46,3,"lake sediment","Pollen slide",concentration,"Global Charcoal Database Version 4","central core",2021-05-07,134,530,768,AU,AUS
675,770,"Nadrau core",-17.75,177.88,680,"bog sediment","Pollen slide",concentration,"Global Charcoal Database Version 4","central core",2021-05-07,152,531,770,FJ,FJI
676,771,"Nekkeng core",7.45,134.52,9,archaeological,"Pollen slide",concentration,"Global Charcoal Database Version 4",-777777,2020-03-06,152,532,771,PW,PLW
677,772,"Ngardmau core",7.6,134.57,10,archaeological,"Pollen slide",concentration,"Global Charcoal Database Version 4",-777777,2020-03-06,25,533,772,PW,PLW
678,773,"Ngerchau core",7.63,134.52,9,archaeological,"Pollen slide",concentration,"Global Charcoal Database Version 4",-777777,2020-03-06,152,534,773,PW,PLW
679,774,"Ngerdok 2",7.52,134.6,25,"lake sediment","Pollen slide",concentration,"Global Charcoal Database Version 4",-777777,2020-03-06,152,535,774,PW,PLW
680,775,"Olbed 1",7.5,134.54,20,archaeological,"Pollen slide",concentration,"Global Charcoal Database Version 4",-777777,2020-03-06,152,536,775,PW,PLW
659,776,"Ringarooma Humus site 2",-41.3,147.61,885,"bog sediment","Pollen slide",concentration,"Global Charcoal Database Version 4",-777777,2020-03-06,152,537,776,AU,AUS
682,777,"Stockyard Swamp_Hunter Island core",-40.55,144.75,65,"bog sediment","Pollen slide",concentration,"Global Charcoal Database Version 4",-777777,2020-03-06,156,538,777,AU,AUS
684,779,"Laguna Verde core",13.89,-89.78,1600,"lake sediment","Pollen slide","pollen concentration","Global Charcoal Database Version 4",-777777,2020-03-06,62,539,779,SV,SLV
685,780,"Laguna Cuzcachapa core",13.98,-89.68,709,"lake sediment","Pollen slide","pollen concentration","Global Charcoal Database Version 4",-777777,2020-03-06,62,540,780,SV,SLV
687,782,"Laguna Santa Elena core",8.56,-82.56,1100,"lake sediment","Pollen slide","pollen concentration","Global Charcoal Database Version 4",-777777,2020-03-06,62,541,782,PA,PAN
688,783,"Marcacocha core",-13.21,-72.2,3355,"lake sediment","Pollen slide","pollen concentration","Global Charcoal Database Version 4",-777777,2020-03-06,62,542,783,PE,PER
689,784,"Yano core",7.38,134.54,40,archaeological,"Pollen slide",concentration,"Global Charcoal Database Version 4",-777777,2020-03-06,152,543,784,PW,PLW
690,785,"Laguna Pompal core",18.37,-94.95,700,"lake sediment","Pollen slide",influx,"Global Charcoal Database Version 4",-777777,2020-03-06,148,544,785,MX,MEX
691,786,"Laguna Lincoln core",-45.36,-74.06,19,"lake sediment","Pollen slide","pollen concentration","Global Charcoal Database Version 4",-777777,2020-03-06,78,545,786,CL,CHL
692,787,"Laguna Lofel core",-44.92,-74.32,13,"lake sediment","Pollen slide","pollen concentration","Global Charcoal Database Version 4",-777777,2020-03-06,78,546,787,CL,CHL
693,788,"Laguna Six Minutes core",-46.41,-74.33,15,"lake sediment","Pollen slide","pollen concentration","Global Charcoal Database Version 4",-777777,2020-03-06,78,547,788,CL,CHL
694,789,"Laguna Stibnite core",-46.41,-74.4,15,"lake sediment","Pollen slide","pollen concentration","Global Charcoal Database Version 4",-777777,2020-03-06,78,548,789,CL,CHL
695,790,"Carajas core",-6,-50.16,250,"lake sediment",Sieved,concentration,"Global Charcoal Database Version 4",-777777,2020-03-06,11,549,790,BR,BRA
696,791,"Lower Gaylor Lake core",37.90938,-119.286309,3062,"lake sediment",Sieved,influx,"Global Charcoal Database Version 4","central core",2021-12-23,28,550,791,US,USA
697,792,"Barrett Lake core",37.588994,-118.996235,2816,"lake sediment",Sieved,influx,"Global Charcoal Database Version 4","central core",2021-12-23,28,551,792,US,USA
698,793,"Lago Dell'Accesa composite",42.9879329162739,10.8951222896576,155,"lake sediment",Sieved,concentration,"Global Charcoal Database Version 4",-777777,2020-03-06,11,552,793,IT,ITA
699,794,"Ngerkell core",7.6,134.62,10,"lake sediment","Pollen slide",concentration,"Global Charcoal Database Version 4",-777777,2020-03-06,134,553,794,PW,PLW
700,795,"Mela Swamp core",-9.47,160.08,20,"bog sediment","Pollen slide",concentration,"Global Charcoal Database Version 4",-777777,2020-03-06,152,554,795,SB,SLB
659,796,"Ringarooma Humus site 1",-41.3,147.61,885,"bog sediment","Pollen slide",concentration,"Global Charcoal Database Version 4",-777777,2020-03-06,152,555,796,AU,AUS
657,797,"Lynchs Crater_Holocene core",-17.36,145.7,760,"lake sediment","Pollen slide",concentration,"Global Charcoal Database Version 4","central core",2021-05-07,134,556,797,AU,AUS
703,798,"Neon core",-8.47,147.3,2875,"bog sediment","Pollen slide",concentration,"Global Charcoal Database Version 4",-777777,2020-03-06,156,557,798,PG,PNG
429,799,"gtr125 conc",-10.1,142.14,10,"bog sediment",Sieved,concentration,"Global Charcoal Database Version 4",-777777,2020-03-06,11,558,799,AU,AUS
458,800,"Crevice Lake freeze core",45,-110.578,1713,"lake sediment",Sieved,influx,"Global Charcoal Database Version 4","central core",2021-12-23,10,559,800,US,USA
706,801,"Graham Lake core",45.1833,-77.35,381,"lake sediment","Pollen slide",influx,"Global Charcoal Database Version 4","central core",2021-05-07,149,560,801,CA,CAN
707,802,"High Lake core",44.5167,-76.6,192,"lake sediment","Pollen slide",influx,"Global Charcoal Database Version 4","central core",2021-05-07,149,561,802,CA,CAN
708,803,"Caotanhu relic site core",44.42,113.02,380,"bog sediment","Pollen slide",concentration,"Global Charcoal Database Version 4",-999999,2021-05-07,22,562,803,CN,CHN
710,806,"Serra da Bocaina 1",-22.74,-44.55,1500,other,"Pollen slide",concentration,"Global Charcoal Database Version 4",-777777,2020-03-06,98,563,806,BR,BRA
716,813,"MD97-2140 core",2.06,142.26,-2547,"marine sediment","Charcoal particles identified by imaging software",concentration,"Global Charcoal Database Version 4",-888888,2021-05-07,147,564,813,FM,FSM
719,816,"Cantarrana core",10.43,-84,36,"bog sediment","Pollen slide",concentration,"Global Charcoal Database Version 4","central core",2021-05-07,140,565,816,CR,CRI
720,817,BAT1,41.905278,16.134167,1,"lake sediment","Pollen slide",concentration,"Global Charcoal Database Version 4","central core",2021-05-07,152,566,817,IT,ITA
721,818,"Hula core",33.04,35.37,70,"lake sediment","Pollen slide",concentration,"Global Charcoal Database Version 4",-777777,2020-03-06,22,567,818,IL,ISR
722,819,"Ackgol core (AGL95A)",37.3,33.44,1000,"lake sediment","Pollen slide",concentration,"Global Charcoal Database Version 4","central core",2021-12-23,22,568,819,TR,TUR
723,820,"Lago della Costa AP2",45.270278,11.743056,7,"lake sediment","Pollen slide",concentration,"Global Charcoal Database Version 4","central core",2021-05-19,6,569,820,IT,ITA
725,822,"Three Creeks core",44.09,-121.62,1996,"lake sediment",Sieved,concentration,"Global Charcoal Database Version 4","central core",2021-12-23,11,570,822,US,USA
726,823,"Todd Lake core",44.02,-121.68,1875,"lake sediment",Sieved,concentration,"Global Charcoal Database Version 4",-777777,2020-03-06,11,571,823,US,USA
727,824,"Tumalo Lake core",44.02,-121.54,1536,"lake sediment",Sieved,concentration,"Global Charcoal Database Version 4",-777777,2020-03-06,11,572,824,US,USA
728,825,"Butler Lake core",43.662484,-88.134088,316,"lake sediment",Sieved,concentration,"Global Charcoal Database Version 4","central core",2021-12-23,11,573,825,US,USA
729,826,"Seven Lake core",43.613705,-88.143562,307,"lake sediment",Sieved,concentration,"Global Charcoal Database Version 4","central core",2021-12-23,11,574,826,US,USA
730,827,"Laguna Bonillita core",9.99,-83.61,450,"lake sediment","Pollen slide","pollen concentration","Global Charcoal Database Version 4",-777777,2020-03-06,62,575,827,CR,CRI
731,828,"Wilson Bog core",-34.97,138.69,425,"bog sediment",Sieved,other,"Global Charcoal Database Version 4",-777777,2020-03-06,30,576,828,AU,AUS
734,831,"Lake Tyrrell 1",-35.31,142.78,42,"lake sediment","Pollen slide","pollen concentration","Global Charcoal Database Version 4",-777777,2020-03-06,126,577,831,AU,AUS
734,832,"Lake Tyrrell 2",-35.31,142.78,42,"lake sediment","Pollen slide","pollen concentration","Global Charcoal Database Version 4",-777777,2020-03-06,126,578,832,AU,AUS
738,835,"Pie de Gigante core 1",11.38,-86.03,-777777,-777777,Sieved,concentration,"Global Charcoal Database Version 4",-777777,2020-03-06,175,579,835,NI,NIC
739,836,"Laguna Herradura core",22.01,-98.15,-777777,-777777,Sieved,concentration,"Global Charcoal Database Version 4",-777777,2020-03-06,175,580,836,MX,MEX
741,838,"Lago Pichilafquen core",-39.220472,-72.208021,301,"lake sediment",Sieved,concentration,"Global Charcoal Database Version 4","central core",2021-05-07,11,581,838,CL,CHL
742,839,"Campbell Lake CA core",41.532802,-123.105499,1750,"lake sediment",Sieved,concentration,"Global Charcoal Database Version 4","central core",2021-05-07,11,582,839,US,USA
743,840,"Sanger Lake CA core",41.901658,-123.648973,1547,"lake sediment",Sieved,concentration,"Global Charcoal Database Version 4","central core",2021-05-07,11,583,840,US,USA
744,841,"Taylor Lake CA core",41.36144,-122.968648,1979,"lake sediment",Sieved,concentration,"Global Charcoal Database Version 4","central core",2021-05-07,11,584,841,US,USA
745,842,"USL core",42.03,-123.01,930,"lake sediment",Sieved,concentration,"Global Charcoal Database Version 4",-777777,2020-03-06,11,585,842,US,USA
747,844,"Lago Perso core",44.92,6.8,1801,-777777,Sieved,influx,"Global Charcoal Database Version 4",-777777,2020-03-06,149,586,844,IT,ITA
748,845,"Wildcat Lake core",37.96,-122.78,67,"lake sediment",Sieved,influx,"Global Charcoal Database Version 4","central core",2021-05-07,10,587,845,US,USA
749,846,"Glenmire core 3",37.99,-122.77,399,"bog sediment",Sieved,concentration,Neotoma,"central core",2021-12-01,11,588,846,US,USA
750,847,"Yaguaru core",-15.6,-63.21,195,"lake sediment","Pollen slide",concentration,"Global Charcoal Database Version 4",-777777,2020-03-06,43,589,847,BO,BOL
751,848,"Salvador core",18.795786,-70.886979,990,"lake sediment","Pollen slide",concentration,"Global Charcoal Database Version 4","central core",2021-05-07,43,591,848,DO,DOM
752,849,"Castilla core",18.7978,-70.8761,976,"lake sediment","Pollen slide",concentration,"Global Charcoal Database Version 4","central core",2021-05-07,43,592,849,DO,DOM
753,850,"Lake Oswego core",45.41,-122.66,30,"lake sediment",Sieved,concentration,"Global Charcoal Database Version 4",-777777,2020-03-16,11,593,850,US,USA
754,851,"Porter Lake core",44.44,-123.24,73,"lake sediment",Sieved,concentration,"Global Charcoal Database Version 4",-777777,2020-03-06,11,594,851,US,USA
755,852,"Warner Lake core",44.24,-122.95,590,"lake sediment",Sieved,concentration,"Global Charcoal Database Version 4",-777777,2020-03-06,11,595,852,US,USA
756,853,"Creag na Caillich core",56.5,-4.33,685,-777777,"Pollen slide",concentration,"Global Charcoal Database Version 4",-777777,2020-03-06,146,596,853,GB,GBR
758,855,"Libouse core",44.59,6.32,1806,-777777,"Pollen slide","pollen concentration","Global Charcoal Database Version 4",-777777,2020-03-06,54,597,855,FR,FRA
759,856,"Five Lakes core",48.08,-118.92,780,"lake sediment","Pollen slide",influx,"Global Charcoal Database Version 4",-777777,2020-03-06,10,598,856,US,USA
760,857,KH1,-6.55245,29.974667,773,"lake sediment",Sieved,concentration,NOAA,"central core",2021-12-23,22,599,857,TZ,TZA
760,858,MC1,-6.55245,29.974667,773,"lake sediment",Sieved,concentration,NOAA,"central core",2021-12-23,22,600,858,TZ,TZA
766,863,"Kapteinstjorn Siljan core",59.33,9.66,590,-777777,-777777,influx,"Global Charcoal Database Version 4",-777777,2020-03-06,28,601,863,NO,NOR
767,864,"Kontolanrahka Bog core",60.79,22.77,80,"bog sediment","Pollen slide",concentration,"Global Charcoal Database Version 4","central core",2021-05-07,9,602,864,FI,FIN
769,866,"Dallund So core",55.48,10.26,12,"lake sediment",Sieved,influx,"Global Charcoal Database Version 4","central core",2021-05-07,28,603,866,DK,DNK
772,869,"Slowinskie Blota SL4",54.58,16.92,20,"bog sediment","Pollen slide",concentration,"Global Charcoal Database Version 4","central core",2021-05-07,134,604,869,PL,POL
773,870,"Besos core Riera-Mora",41.405278,2.248333,7,"fluvial/alluvial sediment",-999999,"pollen concentration","Global Charcoal Database Version 4",-999999,2021-05-07,164,605,870,ES,ESP
774,871,"CRH core",50.660556,15.755833,1206,"bog sediment","Pollen slide",concentration,EPD,"central core",2021-12-23,134,606,871,CZ,CZE
775,872,"Cubelles core",41.2,-1.67,2,other,-999999,concentration,"Global Charcoal Database Version 4","central core",2021-05-07,13,607,872,ES,ESP
776,873,"Lago Alimini Piccolo core",40.18,18.43,1,"lake sediment","Pollen slide",concentration,"Global Charcoal Database Version 4","central core",2021-05-07,124,608,873,IT,ITA
777,874,"Siroki Nyirjes To core",47.926352,20.183213,200,"bog sediment","Pollen slide","pollen concentration","Global Charcoal Database Version 4","central core",2021-05-19,126,609,874,HU,HUN
779,876,"Pena da Cadela core",42.83,-7.17,970,"bog sediment","Pollen slide","pollen concentration","Global Charcoal Database Version 4","marginal core",2021-05-07,126,610,876,ES,ESP
780,877,"Fuldera core",46.61,10.36,1822,"bog sediment","Pollen slide",influx,"Global Charcoal Database Version 4","central core",2021-05-07,28,611,877,IT,ITA
781,878,"Halledammen Hallands Vadero core",56.44,12.57,NULL,-777777,-777777,influx,"Global Charcoal Database Version 4",-777777,2020-03-06,28,612,878,SE,SWE
782,879,"Lac Superieur de Fully core",46.176667,7.093611,2135,"lake sediment","Pollen slide",concentration,"Global Charcoal Database Version 4","marginal core",2021-05-07,152,613,879,CH,CHE
783,880,"Les Amburnex Mire monolith",46.53972,6.231667,1370,"bog sediment","Pollen slide","pollen concentration","Global Charcoal Database Version 4","central core",2021-05-07,164,614,880,CH,CHE
784,881,"Skargolarna core 1",57.02,16.12,NULL,-777777,-777777,influx,"Global Charcoal Database Version 4",-777777,2020-03-06,28,615,881,SE,SWE
785,882,"Lake Farskjon core",56.17,14.99,7,"lake sediment",Sieved,influx,"Global Charcoal Database Version 4","central core",2021-05-07,172,616,882,SE,SWE
786,883,"Lake Ryssjon core",56.17,15.08,5,"lake sediment",Sieved,influx,"Global Charcoal Database Version 4","central core",2021-05-07,172,617,883,SE,SWE
791,888,"East Moor Monolith",50.53,-4.47,250,"bog sediment","Pollen slide",concentration,"Global Charcoal Database Version 4","marginal core",2021-05-07,134,618,888,GB,GBR
793,890,"Kentra Moss core",56.75,-5.83,10,"bog sediment",Sieved,influx,"Global Charcoal Database Version 4","central core",2021-05-07,28,619,890,GB,GBR
794,891,"Killymaddy Lough core",54.53,-6.76,70,"lake sediment","Pollen slide","pollen concentration","Global Charcoal Database Version 4","central core",2021-05-07,164,620,891,GB,GBR
795,892,"Kinloch monolith",57.025431,-6.299902,-888888,"bog sediment","Pollen slide",concentration,"Global Charcoal Database Version 4","central core",2021-05-07,134,621,892,GB,GBR
797,894,"Loch of Knitchen core",59.13980103,-3.00061517,159,"lake sediment",-999999,influx,"Global Charcoal Database Version 4",-999999,2021-05-07,28,622,894,GB,GBR
798,895,"Loch of Torness core",58.778977,-3.292225,15,"lake sediment",-999999,influx,"Global Charcoal Database Version 4",-999999,2021-05-07,28,623,895,GB,GBR
799,896,"Lough Catherine core",54.7,-7.46667,60,"lake sediment","Pollen slide","pollen concentration","Global Charcoal Database Version 4","central core",2021-05-07,164,624,896,GB,GBR
805,902,"Tourbiere du Peschio core",44.45,3.6,1370,"bog sediment",-777777,concentration,EPD,"central core",2021-05-07,134,625,902,FR,FRA
806,903,"Tourbiere des Narses Morte core",44.43,3.6,1400,"bog sediment",-777777,concentration,EPD,"central core",2021-05-07,134,626,903,FR,FRA
807,904,"Tourbiere de La Lande core",43.56,2.96,1040,"bog sediment","Pollen slide",concentration,EPD,"central core",2021-05-07,134,627,904,FR,FRA
